{"type": "FeatureCollection","features": [{"type": "Feature", "geometry": {"type":"Point","coordinates":[-75.9255802,45.2635368]}, "properties": {"osm_id": 6307525270, "osm_type": "nodes", "capacity": null, "name": "Holy Spirit School Age Program", "amenity": "kindergarten", "isced_level": null}},{"type": "Feature", "geometry": {"type":"Point","coordinates":[-75.9307154,45.2658484]}, "properties": {"osm_id": 6036866497, "osm_type": "nodes", "capacity": null, "name": "Kumon", "amenity": "prep_school", "isced_level": null}},{"type": "Feature", "geometry": {"type":"Point","coordinates":[-75.686326,45.221736]}, "properties": {"osm_id": 6307525330, "osm_type": "nodes", "capacity": null, "name": "Manotick Co-operative Nursery School", "amenity": "kindergarten", "isced_level": null}},{"type": "Feature", "geometry": {"type":"Point","coordinates":[-75.8284038,45.3118389]}, "properties": {"osm_id": 6450360193, "osm_type": "nodes", "capacity": null, "name": "Tarbiyah Learning", "amenity": "school", "isced_level": "1;2"}},{"type": "Feature", "geometry": {"type":"Point","coordinates":[-75.9098518,45.2972337]}, "properties": {"osm_id": 6450360195, "osm_type": "nodes", "capacity": null, "name": "Peak Centre Academy", "amenity": "school", "isced_level": "1;2;3"}},{"type": "Feature", "geometry": {"type":"Point","coordinates":[-75.6612261,45.4278541]}, "properties": {"osm_id": 4403545848, "osm_type": "nodes", "capacity": null, "name": "Éducation permanente", "amenity": "school", "isced_level": "3"}},{"type": "Feature", "geometry": {"type":"Point","coordinates":[-75.6612422,45.4280217]}, "properties": {"osm_id": 4403545849, "osm_type": "nodes", "capacity": null, "name": "Éducation sans frontiers - éte", "amenity": "school", "isced_level": "3"}},{"type": "Feature", "geometry": {"type":"Point","coordinates":[-75.770674,45.3322149]}, "properties": {"osm_id": 6135930942, "osm_type": "nodes", "capacity": null, "name": "UCMAS", "amenity": null, "isced_level": null}},{"type": "Feature", "geometry": {"type":"Point","coordinates":[-75.8619514,45.2846996]}, "properties": {"osm_id": 6307525314, "osm_type": "nodes", "capacity": null, "name": "Children's Village", "amenity": "kindergarten", "isced_level": null}},{"type": "Feature", "geometry": {"type":"Point","coordinates":[-75.8713339,45.2880935]}, "properties": {"osm_id": 6135397741, "osm_type": "nodes", "capacity": null, "name": "Children's Universe", "amenity": "kindergarten", "isced_level": null}},{"type": "Feature", "geometry": {"type":"Point","coordinates":[-75.8713514,45.2886832]}, "properties": {"osm_id": 6135359194, "osm_type": "nodes", "capacity": null, "name": "School of Modern Dance", "amenity": null, "isced_level": null}},{"type": "Feature", "geometry": {"type":"Point","coordinates":[-75.602989,45.1473074]}, "properties": {"osm_id": 6307525237, "osm_type": "nodes", "capacity": null, "name": "Osgoode Cooperative Nursery School", "amenity": "kindergarten", "isced_level": null}},{"type": "Feature", "geometry": {"type":"Point","coordinates":[-75.8001937,45.2695361]}, "properties": {"osm_id": 6450360194, "osm_type": "nodes", "capacity": null, "name": "Bibleway Ministries Christian Learning Centre", "amenity": "school", "isced_level": "1;2"}},{"type": "Feature", "geometry": {"type":"Point","coordinates":[-75.826754,45.3207992]}, "properties": {"osm_id": 6307525272, "osm_type": "nodes", "capacity": null, "name": "Lynwood Early Learning Centre", "amenity": "kindergarten", "isced_level": null}},{"type": "Feature", "geometry": {"type":"Point","coordinates":[-75.710367,45.404218]}, "properties": {"osm_id": 6307525309, "osm_type": "nodes", "capacity": null, "name": "Adult High School Preschool Program", "amenity": "school", "isced_level": null}},{"type": "Feature", "geometry": {"type":"Point","coordinates":[-75.846129,45.287231]}, "properties": {"osm_id": 6307525306, "osm_type": "nodes", "capacity": null, "name": "Centre éducatif coopérative Le Manège-Kanata", "amenity": "kindergarten", "isced_level": null}},{"type": "Feature", "geometry": {"type":"Point","coordinates":[-75.843849,45.28217]}, "properties": {"osm_id": 6307525201, "osm_type": "nodes", "capacity": null, "name": "Emerald Meadows School Age Program", "amenity": "kindergarten", "isced_level": null}},{"type": "Feature", "geometry": {"type":"Point","coordinates":[-76.037258,45.346252]}, "properties": {"osm_id": 6307525255, "osm_type": "nodes", "capacity": null, "name": "Carp Nursery School", "amenity": "kindergarten", "isced_level": null}},{"type": "Feature", "geometry": {"type":"Point","coordinates":[-75.6262659,45.3812682]}, "properties": {"osm_id": 5472029640, "osm_type": "nodes", "capacity": null, "name": "Conseil des écoles publiques de l'Est de l'Ontario", "amenity": null, "isced_level": null}},{"type": "Feature", "geometry": {"type":"Point","coordinates":[-75.6401047,45.4099986]}, "properties": {"osm_id": 5940011720, "osm_type": "nodes", "capacity": null, "name": "First Aid 4U", "amenity": null, "isced_level": null}},{"type": "Feature", "geometry": {"type":"Point","coordinates":[-75.6483612,45.4273834]}, "properties": {"osm_id": 5965405504, "osm_type": "nodes", "capacity": null, "name": "Garderie Providence", "amenity": "kindergarten", "isced_level": null}},{"type": "Feature", "geometry": {"type":"Point","coordinates":[-75.6500247,45.4226265]}, "properties": {"osm_id": 6414809443, "osm_type": "nodes", "capacity": null, "name": "The Cauldron Kitchen", "amenity": null, "isced_level": null}},{"type": "Feature", "geometry": {"type":"Point","coordinates":[-75.532272,45.45681]}, "properties": {"osm_id": 6307525514, "osm_type": "nodes", "capacity": null, "name": "MIFO école Étoile de l'Est", "amenity": "kindergarten", "isced_level": null}},{"type": "Feature", "geometry": {"type":"Point","coordinates":[-75.535456,45.468603]}, "properties": {"osm_id": 6307525517, "osm_type": "nodes", "capacity": null, "name": "MIFO école de l'Odyssée", "amenity": "kindergarten", "isced_level": null}},{"type": "Feature", "geometry": {"type":"Point","coordinates":[-75.5387735,45.4653125]}, "properties": {"osm_id": 5752354907, "osm_type": "nodes", "capacity": null, "name": "School Of Rock Orleans", "amenity": null, "isced_level": null}},{"type": "Feature", "geometry": {"type":"Point","coordinates":[-75.6217136,45.4200724]}, "properties": {"osm_id": 7302523710, "osm_type": "nodes", "capacity": null, "name": "Crossroads Truck & Career Academy", "amenity": null, "isced_level": null}},{"type": "Feature", "geometry": {"type":"Point","coordinates":[-75.9228586,45.3272176]}, "properties": {"osm_id": 6307525273, "osm_type": "nodes", "capacity": null, "name": "Centre éducatif Coeur des Jeunes Saint-Rémi", "amenity": "kindergarten", "isced_level": null}},{"type": "Feature", "geometry": {"type":"Point","coordinates":[-75.669765,45.440567]}, "properties": {"osm_id": 6307525283, "osm_type": "nodes", "capacity": null, "name": "Centre éducatif Les Débrouillards", "amenity": "kindergarten", "isced_level": null}},{"type": "Feature", "geometry": {"type":"Point","coordinates":[-75.670303,45.439962]}, "properties": {"osm_id": 6307525349, "osm_type": "nodes", "capacity": null, "name": "Centre éducatif Les Petites Frimousses et Centre éducatif spécialisé L'Image", "amenity": "kindergarten", "isced_level": null}},{"type": "Feature", "geometry": {"type":"Point","coordinates":[-75.5846161,45.4573426]}, "properties": {"osm_id": 6117193715, "osm_type": "nodes", "capacity": null, "name": "Rising Stars Academy", "amenity": null, "isced_level": null}},{"type": "Feature", "geometry": {"type":"Point","coordinates":[-75.5852281,45.4529238]}, "properties": {"osm_id": 5864739861, "osm_type": "nodes", "capacity": null, "name": "Clinique d'apprentissage spécialisée", "amenity": null, "isced_level": null}},{"type": "Feature", "geometry": {"type":"Point","coordinates":[-75.599374,45.443775]}, "properties": {"osm_id": 6307525241, "osm_type": "nodes", "capacity": null, "name": "Elmridge School Age Program", "amenity": "kindergarten", "isced_level": null}},{"type": "Feature", "geometry": {"type":"Point","coordinates":[-75.592094,45.452459]}, "properties": {"osm_id": 6307525235, "osm_type": "nodes", "capacity": null, "name": "Centre éducatif Séraphin-Marion", "amenity": "kindergarten", "isced_level": null}},{"type": "Feature", "geometry": {"type":"Point","coordinates":[-75.614453,45.395353]}, "properties": {"osm_id": 6307525259, "osm_type": "nodes", "capacity": null, "name": "Hawthorne Meadows Nursery School", "amenity": "kindergarten", "isced_level": null}},{"type": "Feature", "geometry": {"type":"Point","coordinates":[-75.604662,45.454351]}, "properties": {"osm_id": 6307525227, "osm_type": "nodes", "capacity": null, "name": "Beaconwood School Age Program", "amenity": "kindergarten", "isced_level": null}},{"type": "Feature", "geometry": {"type":"Point","coordinates":[-75.416294,45.421613]}, "properties": {"osm_id": 6307525304, "osm_type": "nodes", "capacity": null, "name": "Children's Village", "amenity": "kindergarten", "isced_level": null}},{"type": "Feature", "geometry": {"type":"Point","coordinates":[-75.860796,45.291376]}, "properties": {"osm_id": 6307525361, "osm_type": "nodes", "capacity": null, "name": "Stonehaven Early Learning Centre", "amenity": "kindergarten", "isced_level": null}},{"type": "Feature", "geometry": {"type":"Point","coordinates":[-75.7046436,45.414865]}, "properties": {"osm_id": 6307525311, "osm_type": "nodes", "capacity": null, "name": "Centretown Parent's Extended care", "amenity": "kindergarten", "isced_level": null}},{"type": "Feature", "geometry": {"type":"Point","coordinates":[-75.7061477,45.4168242]}, "properties": {"osm_id": 4597259655, "osm_type": "nodes", "capacity": null, "name": "International Languages", "amenity": null, "isced_level": "3"}},{"type": "Feature", "geometry": {"type":"Point","coordinates":[-75.906518,45.248555]}, "properties": {"osm_id": 6307525295, "osm_type": "nodes", "capacity": null, "name": "Baywood School Age Program", "amenity": "kindergarten", "isced_level": null}},{"type": "Feature", "geometry": {"type":"Point","coordinates":[-75.8448064,45.3947588]}, "properties": {"osm_id": 3690129450, "osm_type": "nodes", "capacity": null, "name": "Ecole de Music Sonart", "amenity": "music_school", "isced_level": null}},{"type": "Feature", "geometry": {"type":"Point","coordinates":[-75.715596,45.42608]}, "properties": {"osm_id": 7501814703, "osm_type": "nodes", "capacity": null, "name": "CPE du Portage", "amenity": "kindergarten", "isced_level": null}},{"type": "Feature", "geometry": {"type":"Point","coordinates":[-75.47331,45.4794226]}, "properties": {"osm_id": 6307525209, "osm_type": "nodes", "capacity": null, "name": "Trillium School Age Program", "amenity": "kindergarten", "isced_level": null}},{"type": "Feature", "geometry": {"type":"Point","coordinates":[-75.5094208,45.4326229]}, "properties": {"osm_id": 5691131147, "osm_type": "nodes", "capacity": null, "name": "Centres éducatifs les petits pinceaux", "amenity": "kindergarten", "isced_level": null}},{"type": "Feature", "geometry": {"type":"Point","coordinates":[-75.659935,45.374844]}, "properties": {"osm_id": 6307525492, "osm_type": "nodes", "capacity": null, "name": "Andrew Fleck Child Care Services", "amenity": "kindergarten", "isced_level": null}},{"type": "Feature", "geometry": {"type":"Point","coordinates":[-75.6520375,45.4905777]}, "properties": {"osm_id": 3690660163, "osm_type": "nodes", "capacity": null, "name": "École Vocassion", "amenity": "music_school", "isced_level": null}},{"type": "Feature", "geometry": {"type":"Point","coordinates":[-75.6170391,45.4170198]}, "properties": {"osm_id": 6077026270, "osm_type": "nodes", "capacity": null, "name": "YOW Canada", "amenity": null, "isced_level": null}},{"type": "Feature", "geometry": {"type":"Point","coordinates":[-75.6127287,45.4050772]}, "properties": {"osm_id": 6076836475, "osm_type": "nodes", "capacity": null, "name": "Crossroads Truck Training Academy", "amenity": null, "isced_level": null}},{"type": "Feature", "geometry": {"type":"Point","coordinates":[-75.6814067,45.3921356]}, "properties": {"osm_id": 6020505529, "osm_type": "nodes", "capacity": null, "name": "Astolot Education Centre", "amenity": "school", "isced_level": "1;2;3"}},{"type": "Feature", "geometry": {"type":"Point","coordinates":[-75.7427602,45.378014]}, "properties": {"osm_id": 5973776786, "osm_type": "nodes", "capacity": null, "name": "Academie De Formation Linguistique", "amenity": null, "isced_level": null}},{"type": "Feature", "geometry": {"type":"Point","coordinates":[-75.64748,45.479607]}, "properties": {"osm_id": 7495202747, "osm_type": "nodes", "capacity": null, "name": "Garderie Académie Trivium", "amenity": "kindergarten", "isced_level": null}},{"type": "Feature", "geometry": {"type":"Point","coordinates":[-75.902235,45.308138]}, "properties": {"osm_id": 6307525353, "osm_type": "nodes", "capacity": null, "name": "Katimavik Early Learning Centre", "amenity": "kindergarten", "isced_level": null}},{"type": "Feature", "geometry": {"type":"Point","coordinates":[-75.882196,45.311219]}, "properties": {"osm_id": 6307525214, "osm_type": "nodes", "capacity": null, "name": "Centre éducatif Coeur des Jeunes Roger-Saint-Denis", "amenity": "kindergarten", "isced_level": null}},{"type": "Feature", "geometry": {"type":"Point","coordinates":[-75.620397,45.392096]}, "properties": {"osm_id": 6307525355, "osm_type": "nodes", "capacity": null, "name": "Service à l'enfance Aladin Childcare Services", "amenity": "kindergarten", "isced_level": null}},{"type": "Feature", "geometry": {"type":"Point","coordinates":[-75.7439196,45.3767475]}, "properties": {"osm_id": 5804141738, "osm_type": "nodes", "capacity": null, "name": "Revel Academy", "amenity": "school", "isced_level": "1;2"}},{"type": "Feature", "geometry": {"type":"Point","coordinates":[-75.7521003,45.3759599]}, "properties": {"osm_id": 6019970508, "osm_type": "nodes", "capacity": null, "name": "Ganon Preschool", "amenity": "kindergarten", "isced_level": "0"}},{"type": "Feature", "geometry": {"type":"Point","coordinates":[-75.752133,45.37655]}, "properties": {"osm_id": 6307525248, "osm_type": "nodes", "capacity": null, "name": "Early Beginnings", "amenity": "kindergarten", "isced_level": null}},{"type": "Feature", "geometry": {"type":"Point","coordinates":[-75.7069544,45.4167038]}, "properties": {"osm_id": 6017778651, "osm_type": "nodes", "capacity": null, "name": "OCE Spacesim", "amenity": null, "isced_level": null}},{"type": "Feature", "geometry": {"type":"Point","coordinates":[-75.7065557,45.4166627]}, "properties": {"osm_id": 4597259663, "osm_type": "nodes", "capacity": null, "name": "Urban Aboriginal Alternate High School", "amenity": null, "isced_level": "3"}},{"type": "Feature", "geometry": {"type":"Point","coordinates":[-75.7026042,45.3682665]}, "properties": {"osm_id": 6699440130, "osm_type": "nodes", "capacity": null, "name": "Saint Elizabeth Health Care College", "amenity": null, "isced_level": null}},{"type": "Feature", "geometry": {"type":"Point","coordinates":[-75.7164701,45.3492136]}, "properties": {"osm_id": 5316657645, "osm_type": "nodes", "capacity": null, "name": null, "amenity": "school", "isced_level": null}},{"type": "Feature", "geometry": {"type":"Point","coordinates":[-75.733507,45.389416]}, "properties": {"osm_id": 6307525490, "osm_type": "nodes", "capacity": null, "name": "Ottawa Children's Montessori Centre", "amenity": "kindergarten", "isced_level": null}},{"type": "Feature", "geometry": {"type":"Point","coordinates":[-75.7854301,45.3424494]}, "properties": {"osm_id": 5980530745, "osm_type": "nodes", "capacity": null, "name": "First Aid 4U", "amenity": null, "isced_level": null}},{"type": "Feature", "geometry": {"type":"Point","coordinates":[-75.7898363,45.351527]}, "properties": {"osm_id": 6450319315, "osm_type": "nodes", "capacity": null, "name": "St. Timothy's Classical Academy", "amenity": "school", "isced_level": "1;2"}},{"type": "Feature", "geometry": {"type":"Point","coordinates":[-75.7762169,45.4769864]}, "properties": {"osm_id": 11638259161, "osm_type": "nodes", "capacity": null, "name": "Harvard PDI", "amenity": null, "isced_level": null}},{"type": "Feature", "geometry": {"type":"Point","coordinates":[-75.782624,45.5058288]}, "properties": {"osm_id": 13092851754, "osm_type": "nodes", "capacity": null, "name": "École Montessori de Chelsea", "amenity": "school", "isced_level": null}},{"type": "Feature", "geometry": {"type":"Point","coordinates":[-75.773062,45.375387]}, "properties": {"osm_id": 6307525374, "osm_type": "nodes", "capacity": null, "name": "Matreshka", "amenity": "kindergarten", "isced_level": null}},{"type": "Feature", "geometry": {"type":"Point","coordinates":[-75.68944,45.276409]}, "properties": {"osm_id": 6307525323, "osm_type": "nodes", "capacity": null, "name": "Shoreline Early Learning Centre", "amenity": "kindergarten", "isced_level": null}},{"type": "Feature", "geometry": {"type":"Point","coordinates":[-75.6140909,45.3953087]}, "properties": {"osm_id": 6307525297, "osm_type": "nodes", "capacity": null, "name": "Service à l'enfance Aladin Childcare Services", "amenity": "kindergarten", "isced_level": null}},{"type": "Feature", "geometry": {"type":"Point","coordinates":[-75.667073,45.432612]}, "properties": {"osm_id": 6307525317, "osm_type": "nodes", "capacity": null, "name": "Centre éducatif les Débrouillards", "amenity": "kindergarten", "isced_level": null}},{"type": "Feature", "geometry": {"type":"Point","coordinates":[-75.7499657,45.3649286]}, "properties": {"osm_id": 6307525243, "osm_type": "nodes", "capacity": null, "name": "Little Love Bugs Daycare", "amenity": "kindergarten", "isced_level": null}},{"type": "Feature", "geometry": {"type":"Point","coordinates":[-75.6530813,45.4555136]}, "properties": {"osm_id": 6450319316, "osm_type": "nodes", "capacity": null, "name": "Manor Park Child Care Centre", "amenity": "school", "isced_level": "1;2;3"}},{"type": "Feature", "geometry": {"type":"Point","coordinates":[-75.537682,45.449233]}, "properties": {"osm_id": 6307525335, "osm_type": "nodes", "capacity": null, "name": "Forest Valley School Age Program", "amenity": "kindergarten", "isced_level": null}},{"type": "Feature", "geometry": {"type":"Point","coordinates":[-75.7330057,45.4335969]}, "properties": {"osm_id": 6465280503, "osm_type": "nodes", "capacity": null, "name": "RCR Plus", "amenity": null, "isced_level": null}},{"type": "Feature", "geometry": {"type":"Point","coordinates":[-75.6912035,45.333588]}, "properties": {"osm_id": 5916191217, "osm_type": "nodes", "capacity": null, "name": "Zichan International Arts School", "amenity": null, "isced_level": null}},{"type": "Feature", "geometry": {"type":"Point","coordinates":[-75.8745687,45.2848723]}, "properties": {"osm_id": 6135318043, "osm_type": "nodes", "capacity": null, "name": "Cedar Ridge High School", "amenity": "school", "isced_level": "3"}},{"type": "Feature", "geometry": {"type":"Point","coordinates":[-75.72408,45.433154]}, "properties": {"osm_id": 3690168323, "osm_type": "nodes", "capacity": null, "name": "Vallee Jeunesse", "amenity": "kindergarten", "isced_level": null}},{"type": "Feature", "geometry": {"type":"Point","coordinates":[-75.908169,45.27076]}, "properties": {"osm_id": 6307525218, "osm_type": "nodes", "capacity": null, "name": "Andrew Fleck Child Care Services", "amenity": "kindergarten", "isced_level": null}},{"type": "Feature", "geometry": {"type":"Point","coordinates":[-75.9032816,45.3406676]}, "properties": {"osm_id": 6319110196, "osm_type": "nodes", "capacity": null, "name": "Franco Langues", "amenity": null, "isced_level": null}},{"type": "Feature", "geometry": {"type":"Point","coordinates":[-75.9030682,45.3411156]}, "properties": {"osm_id": 6319110194, "osm_type": "nodes", "capacity": null, "name": "Kanata Music Centre", "amenity": "music_school", "isced_level": null}},{"type": "Feature", "geometry": {"type":"Point","coordinates":[-75.9008905,45.3289146]}, "properties": {"osm_id": 5846881054, "osm_type": "nodes", "capacity": null, "name": "Beaverbrook Math Academy", "amenity": "school", "isced_level": "3"}},{"type": "Feature", "geometry": {"type":"Point","coordinates":[-75.9219512,45.2589009]}, "properties": {"osm_id": 5891305885, "osm_type": "nodes", "capacity": null, "name": "Stittsville Childcare Centre", "amenity": "kindergarten", "isced_level": null}},{"type": "Feature", "geometry": {"type":"Point","coordinates":[-75.9155716,45.2549753]}, "properties": {"osm_id": 6307525302, "osm_type": "nodes", "capacity": null, "name": "Merrily We Go Preschool", "amenity": "kindergarten", "isced_level": null}},{"type": "Feature", "geometry": {"type":"Point","coordinates":[-75.9315811,45.275027]}, "properties": {"osm_id": 6307525266, "osm_type": "nodes", "capacity": null, "name": "Jackson Trails Early Learning Centre", "amenity": "kindergarten", "isced_level": null}},{"type": "Feature", "geometry": {"type":"Point","coordinates":[-75.736166,45.245884]}, "properties": {"osm_id": 6307525526, "osm_type": "nodes", "capacity": null, "name": "Centre éducatif coopérative Le Manège", "amenity": "kindergarten", "isced_level": null}},{"type": "Feature", "geometry": {"type":"Point","coordinates":[-75.7143309,45.3313354]}, "properties": {"osm_id": 6202432704, "osm_type": "nodes", "capacity": null, "name": "Urban Combat Systems", "amenity": null, "isced_level": null}},{"type": "Feature", "geometry": {"type":"Point","coordinates":[-75.7426885,45.4562449]}, "properties": {"osm_id": 6764030505, "osm_type": "nodes", "capacity": null, "name": "Center Relation D'aide De Montréal", "amenity": null, "isced_level": null}},{"type": "Feature", "geometry": {"type":"Point","coordinates":[-75.742619,45.4566838]}, "properties": {"osm_id": 6764030507, "osm_type": "nodes", "capacity": null, "name": "Centre des Langues Secondes de l'Outaouais", "amenity": null, "isced_level": null}},{"type": "Feature", "geometry": {"type":"Point","coordinates":[-75.7386,45.456444]}, "properties": {"osm_id": 7495809758, "osm_type": "nodes", "capacity": null, "name": "Garderie Centre éducatif La Passerelle", "amenity": "kindergarten", "isced_level": null}},{"type": "Feature", "geometry": {"type":"Point","coordinates":[-76.1504169,45.1449809]}, "properties": {"osm_id": 6415188230, "osm_type": "nodes", "capacity": null, "name": "TR Leger School - Carleton Place", "amenity": "school", "isced_level": "3"}},{"type": "Feature", "geometry": {"type":"Point","coordinates":[-75.7108969,45.3319335]}, "properties": {"osm_id": 6146684366, "osm_type": "nodes", "capacity": null, "name": "Advanced Consulting and Training", "amenity": null, "isced_level": null}},{"type": "Feature", "geometry": {"type":"Point","coordinates":[-75.9032107,45.2701618]}, "properties": {"osm_id": 6307525359, "osm_type": "nodes", "capacity": null, "name": "Centre éducatif coopérative Le Manège-Stittsville", "amenity": "kindergarten", "isced_level": null}},{"type": "Feature", "geometry": {"type":"Point","coordinates":[-75.5475967,45.4622189]}, "properties": {"osm_id": 6266683772, "osm_type": "nodes", "capacity": null, "name": "Canadian Group Emergency Training", "amenity": null, "isced_level": null}},{"type": "Feature", "geometry": {"type":"Point","coordinates":[-75.7812291,45.3250634]}, "properties": {"osm_id": 6135932674, "osm_type": "nodes", "capacity": null, "name": "Stepping Up Daycare", "amenity": "kindergarten", "isced_level": null}},{"type": "Feature", "geometry": {"type":"Point","coordinates":[-75.8861545,45.3172824]}, "properties": {"osm_id": 5976659115, "osm_type": "nodes", "capacity": null, "name": "Kids Kingdom", "amenity": "kindergarten", "isced_level": null}},{"type": "Feature", "geometry": {"type":"Point","coordinates":[-76.1869454,45.3899591]}, "properties": {"osm_id": 6259145387, "osm_type": "nodes", "capacity": null, "name": "Ferghus & Company", "amenity": null, "isced_level": null}},{"type": "Feature", "geometry": {"type":"Point","coordinates":[-75.88997,45.310024]}, "properties": {"osm_id": 6307525327, "osm_type": "nodes", "capacity": null, "name": "Katimavik Cooperative Nursery School", "amenity": "kindergarten", "isced_level": null}},{"type": "Feature", "geometry": {"type":"Point","coordinates":[-75.9001382,45.3303825]}, "properties": {"osm_id": 5846903080, "osm_type": "nodes", "capacity": null, "name": "Kumon", "amenity": "prep_school", "isced_level": null}},{"type": "Feature", "geometry": {"type":"Point","coordinates":[-76.1956268,45.2253727]}, "properties": {"osm_id": 6960981197, "osm_type": "nodes", "capacity": null, "name": "JB Arts", "amenity": null, "isced_level": null}},{"type": "Feature", "geometry": {"type":"Point","coordinates":[-76.1840969,45.2331369]}, "properties": {"osm_id": 6960899970, "osm_type": "nodes", "capacity": null, "name": "TR Leger School - Almonte Campus", "amenity": "school", "isced_level": "3"}},{"type": "Feature", "geometry": {"type":"Point","coordinates":[-76.1477,45.41581]}, "properties": {"osm_id": 6307525384, "osm_type": "nodes", "capacity": null, "name": "West Carleton Kids' Korner", "amenity": "kindergarten", "isced_level": null}},{"type": "Feature", "geometry": {"type":"Point","coordinates":[-75.7717988,45.3390525]}, "properties": {"osm_id": 6450319314, "osm_type": "nodes", "capacity": null, "name": "Torah High Ottawa", "amenity": "school", "isced_level": "3"}},{"type": "Feature", "geometry": {"type":"Point","coordinates":[-75.6836437,45.2253693]}, "properties": {"osm_id": 6040708780, "osm_type": "nodes", "capacity": null, "name": "Denise Smith Dance Studio", "amenity": null, "isced_level": null}},{"type": "Feature", "geometry": {"type":"Point","coordinates":[-75.8469585,45.2837844]}, "properties": {"osm_id": 6307525334, "osm_type": "nodes", "capacity": null, "name": "Lady Macdonald Centre", "amenity": "kindergarten", "isced_level": null}},{"type": "Feature", "geometry": {"type":"Point","coordinates":[-75.7390152,45.3804609]}, "properties": {"osm_id": 6020505531, "osm_type": "nodes", "capacity": null, "name": "Ottawa Torah Institute", "amenity": "school", "isced_level": "3"}},{"type": "Feature", "geometry": {"type":"Point","coordinates":[-75.8963147,45.3124246]}, "properties": {"osm_id": 6318998469, "osm_type": "nodes", "capacity": null, "name": "Linda Jamieson School of Dance", "amenity": null, "isced_level": null}},{"type": "Feature", "geometry": {"type":"Point","coordinates":[-75.354097,45.355491]}, "properties": {"osm_id": 6307525522, "osm_type": "nodes", "capacity": null, "name": "La Coccinelle, Saint-Guillaume", "amenity": "kindergarten", "isced_level": null}},{"type": "Feature", "geometry": {"type":"Point","coordinates":[-75.4124146,45.5456532]}, "properties": {"osm_id": 6715925965, "osm_type": "nodes", "capacity": null, "name": "CPE La Grande Envolée (Buckingham)", "amenity": "kindergarten", "isced_level": null}},{"type": "Feature", "geometry": {"type":"Point","coordinates":[-75.72698,45.365988]}, "properties": {"osm_id": 6307525207, "osm_type": "nodes", "capacity": null, "name": "Sessila Academy", "amenity": "kindergarten", "isced_level": null}},{"type": "Feature", "geometry": {"type":"Point","coordinates":[-75.9057802,45.3047245]}, "properties": {"osm_id": 7178260369, "osm_type": "nodes", "capacity": null, "name": "Pickles and Poppets", "amenity": "kindergarten", "isced_level": null}},{"type": "Feature", "geometry": {"type":"Point","coordinates":[-75.8733429,45.2873736]}, "properties": {"osm_id": 6135471528, "osm_type": "nodes", "capacity": null, "name": "Fast Forward French", "amenity": null, "isced_level": null}},{"type": "Feature", "geometry": {"type":"Point","coordinates":[-75.8677813,45.288537]}, "properties": {"osm_id": 5648551857, "osm_type": "nodes", "capacity": null, "name": "Bridlewood Child Learning Centre", "amenity": "kindergarten", "isced_level": null}},{"type": "Feature", "geometry": {"type":"Point","coordinates":[-75.8739638,45.2859243]}, "properties": {"osm_id": 6135802152, "osm_type": "nodes", "capacity": null, "name": "The Loft School Of Art & Dance", "amenity": null, "isced_level": null}},{"type": "Feature", "geometry": {"type":"Point","coordinates":[-75.7109906,45.1300844]}, "properties": {"osm_id": 6307525499, "osm_type": "nodes", "capacity": null, "name": "North Gower Co-operative Nursery School", "amenity": "kindergarten", "isced_level": null}},{"type": "Feature", "geometry": {"type":"Point","coordinates":[-75.769513,45.365152]}, "properties": {"osm_id": 6307525512, "osm_type": "nodes", "capacity": null, "name": "Whitehaven Kindergarten School Age Centre", "amenity": "kindergarten", "isced_level": null}},{"type": "Feature", "geometry": {"type":"Point","coordinates":[-75.605064,45.421577]}, "properties": {"osm_id": 6307525377, "osm_type": "nodes", "capacity": null, "name": "MIFO École des pins", "amenity": "kindergarten", "isced_level": null}},{"type": "Feature", "geometry": {"type":"Point","coordinates":[-75.702959,45.42185]}, "properties": {"osm_id": 6307525495, "osm_type": "nodes", "capacity": null, "name": "Children on the Hill", "amenity": "kindergarten", "isced_level": null}},{"type": "Feature", "geometry": {"type":"Point","coordinates":[-75.708749,45.405906]}, "properties": {"osm_id": 6307525503, "osm_type": "nodes", "capacity": null, "name": "St. Anthony's Children's Centre", "amenity": "kindergarten", "isced_level": null}},{"type": "Feature", "geometry": {"type":"Point","coordinates":[-75.705577,45.399839]}, "properties": {"osm_id": 6307525497, "osm_type": "nodes", "capacity": null, "name": "Dow's Lake Day Care", "amenity": "kindergarten", "isced_level": null}},{"type": "Feature", "geometry": {"type":"Point","coordinates":[-75.7377888,45.447472]}, "properties": {"osm_id": 7498586732, "osm_type": "nodes", "capacity": null, "name": "CPE Chez Cornemuse", "amenity": "kindergarten", "isced_level": null}},{"type": "Feature", "geometry": {"type":"Point","coordinates":[-75.9111111,45.3358648]}, "properties": {"osm_id": 6319011073, "osm_type": "nodes", "capacity": null, "name": "The Portia Learning Centre", "amenity": null, "isced_level": null}},{"type": "Feature", "geometry": {"type":"Point","coordinates":[-75.639551,45.4850656]}, "properties": {"osm_id": 6287316356, "osm_type": "nodes", "capacity": null, "name": "Garderie Planète Kids", "amenity": "kindergarten", "isced_level": null}},{"type": "Feature", "geometry": {"type":"Point","coordinates":[-75.703132,45.418294]}, "properties": {"osm_id": 6307525244, "osm_type": "nodes", "capacity": null, "name": "Kids & Company", "amenity": "kindergarten", "isced_level": null}},{"type": "Feature", "geometry": {"type":"Point","coordinates":[-75.7059521,45.4169017]}, "properties": {"osm_id": 4597259662, "osm_type": "nodes", "capacity": null, "name": "International Student Program Office", "amenity": null, "isced_level": "3"}},{"type": "Feature", "geometry": {"type":"Point","coordinates":[-75.712514,45.352181]}, "properties": {"osm_id": 6307525286, "osm_type": "nodes", "capacity": null, "name": "Garderie Le Parasol", "amenity": "kindergarten", "isced_level": null}},{"type": "Feature", "geometry": {"type":"Point","coordinates":[-75.8820856,45.3011862]}, "properties": {"osm_id": 5648457042, "osm_type": "nodes", "capacity": null, "name": "Kumon", "amenity": "prep_school", "isced_level": null}},{"type": "Feature", "geometry": {"type":"Point","coordinates":[-75.7393053,45.3963418]}, "properties": {"osm_id": 6067578463, "osm_type": "nodes", "capacity": null, "name": "Chesterton Academy", "amenity": "school", "isced_level": "3"}},{"type": "Feature", "geometry": {"type":"Point","coordinates":[-75.6498376,45.4474785]}, "properties": {"osm_id": 4911333406, "osm_type": "nodes", "capacity": null, "name": "Grandir ensemble", "amenity": "kindergarten", "isced_level": null}},{"type": "Feature", "geometry": {"type":"Point","coordinates":[-75.649754,45.4474981]}, "properties": {"osm_id": 6450319317, "osm_type": "nodes", "capacity": null, "name": "Le Cercle des savoirs", "amenity": "school", "isced_level": "1;2;3"}},{"type": "Feature", "geometry": {"type":"Point","coordinates":[-75.688486,45.404399]}, "properties": {"osm_id": 6307525351, "osm_type": "nodes", "capacity": null, "name": "Good Morning Preschool", "amenity": "kindergarten", "isced_level": null}},{"type": "Feature", "geometry": {"type":"Point","coordinates":[-75.7420407,45.3751808]}, "properties": {"osm_id": 6186697300, "osm_type": "nodes", "capacity": null, "name": "TARA", "amenity": "music_school", "isced_level": null}},{"type": "Feature", "geometry": {"type":"Point","coordinates":[-75.672962,45.330848]}, "properties": {"osm_id": 6307525486, "osm_type": "nodes", "capacity": null, "name": "MFRC-NCR Playtime Platoon Childcare Centre /Garderie", "amenity": "kindergarten", "isced_level": null}},{"type": "Feature", "geometry": {"type":"Point","coordinates":[-75.731,45.382341]}, "properties": {"osm_id": 6307525225, "osm_type": "nodes", "capacity": null, "name": "Annavale Headstart Nursery School", "amenity": "kindergarten", "isced_level": null}},{"type": "Feature", "geometry": {"type":"Point","coordinates":[-75.728907,45.281096]}, "properties": {"osm_id": 6307525291, "osm_type": "nodes", "capacity": null, "name": "Strandherd School Age Program", "amenity": "kindergarten", "isced_level": null}},{"type": "Feature", "geometry": {"type":"Point","coordinates":[-75.691483,45.402225]}, "properties": {"osm_id": 6307525289, "osm_type": "nodes", "capacity": null, "name": "Glebe Co-operative Nursery School", "amenity": "kindergarten", "isced_level": null}},{"type": "Feature", "geometry": {"type":"Point","coordinates":[-75.690675,45.400807]}, "properties": {"osm_id": 6307525250, "osm_type": "nodes", "capacity": null, "name": "Glebe Parent's Daycare", "amenity": "kindergarten", "isced_level": null}},{"type": "Feature", "geometry": {"type":"Point","coordinates":[-75.7085517,45.2850083]}, "properties": {"osm_id": 6307525275, "osm_type": "nodes", "capacity": null, "name": "Crestway Early Learning Centre", "amenity": "kindergarten", "isced_level": null}},{"type": "Feature", "geometry": {"type":"Point","coordinates":[-75.9226552,45.3410502]}, "properties": {"osm_id": 6028419446, "osm_type": "nodes", "capacity": null, "name": "Kids & Company", "amenity": "kindergarten", "isced_level": null}},{"type": "Feature", "geometry": {"type":"Point","coordinates":[-75.9111647,45.3356923]}, "properties": {"osm_id": 6319011074, "osm_type": "nodes", "capacity": null, "name": "Nature and Nurture child care services", "amenity": "kindergarten", "isced_level": null}},{"type": "Feature", "geometry": {"type":"Point","coordinates":[-75.9076812,45.33475]}, "properties": {"osm_id": 6171412941, "osm_type": "nodes", "capacity": null, "name": "Oxford Learning", "amenity": null, "isced_level": null}},{"type": "Feature", "geometry": {"type":"Point","coordinates":[-75.7370181,45.3547407]}, "properties": {"osm_id": 6307525217, "osm_type": "nodes", "capacity": null, "name": "Community Coop Preschool", "amenity": "kindergarten", "isced_level": null}},{"type": "Feature", "geometry": {"type":"Point","coordinates":[-75.7345708,45.3512353]}, "properties": {"osm_id": 5861177002, "osm_type": "nodes", "capacity": null, "name": "The First Aid Guy", "amenity": null, "isced_level": null}},{"type": "Feature", "geometry": {"type":"Point","coordinates":[-75.715812,45.399446]}, "properties": {"osm_id": 6307525329, "osm_type": "nodes", "capacity": null, "name": "Devonshire School Age Day Care #2", "amenity": "kindergarten", "isced_level": null}},{"type": "Feature", "geometry": {"type":"Point","coordinates":[-75.7139003,45.3410684]}, "properties": {"osm_id": 5972795463, "osm_type": "nodes", "capacity": null, "name": "Finishing Trades Institute", "amenity": null, "isced_level": null}},{"type": "Feature", "geometry": {"type":"Point","coordinates":[-75.7098371,45.3326292]}, "properties": {"osm_id": 6144171609, "osm_type": "nodes", "capacity": null, "name": "Langevin Learning Services", "amenity": null, "isced_level": null}},{"type": "Feature", "geometry": {"type":"Point","coordinates":[-75.896282,45.325976]}, "properties": {"osm_id": 6307525216, "osm_type": "nodes", "capacity": null, "name": "Beaverbrook Montessori School", "amenity": "kindergarten", "isced_level": null}},{"type": "Feature", "geometry": {"type":"Point","coordinates":[-75.70089,45.360679]}, "properties": {"osm_id": 6307525196, "osm_type": "nodes", "capacity": null, "name": "Andrew Fleck Child Care Services", "amenity": "kindergarten", "isced_level": null}},{"type": "Feature", "geometry": {"type":"Point","coordinates":[-75.9270434,45.354753]}, "properties": {"osm_id": 6016577353, "osm_type": "nodes", "capacity": null, "name": "March Academy", "amenity": "school", "isced_level": "1"}},{"type": "Feature", "geometry": {"type":"Point","coordinates":[-75.741726,45.385271]}, "properties": {"osm_id": 6307525348, "osm_type": "nodes", "capacity": null, "name": "Westboro Jewish Montessori Preschool", "amenity": "kindergarten", "isced_level": null}},{"type": "Feature", "geometry": {"type":"Point","coordinates":[-75.927228,45.357561]}, "properties": {"osm_id": 6307525310, "osm_type": "nodes", "capacity": null, "name": "Children's Village", "amenity": "kindergarten", "isced_level": null}},{"type": "Feature", "geometry": {"type":"Point","coordinates":[-75.687915,45.359104]}, "properties": {"osm_id": 6307525204, "osm_type": "nodes", "capacity": null, "name": "Riverside Park Nursery School", "amenity": "kindergarten", "isced_level": null}},{"type": "Feature", "geometry": {"type":"Point","coordinates":[-75.7218772,45.3240144]}, "properties": {"osm_id": 6152323962, "osm_type": "nodes", "capacity": null, "name": "TAG Dog Training & Education Centre", "amenity": null, "isced_level": null}},{"type": "Feature", "geometry": {"type":"Point","coordinates":[-75.4122065,45.5877363]}, "properties": {"osm_id": 6720122073, "osm_type": "nodes", "capacity": null, "name": "CPE La Grand Envolee", "amenity": "kindergarten", "isced_level": null}},{"type": "Feature", "geometry": {"type":"Point","coordinates":[-75.5074714,45.5540631]}, "properties": {"osm_id": 5368282806, "osm_type": "nodes", "capacity": null, "name": "Le Lievre Et La Tortue", "amenity": "kindergarten", "isced_level": null}},{"type": "Feature", "geometry": {"type":"Point","coordinates":[-75.674527,45.3739577]}, "properties": {"osm_id": 6307525491, "osm_type": "nodes", "capacity": null, "name": "Future Scholars Montessori Academy", "amenity": "kindergarten", "isced_level": null}},{"type": "Feature", "geometry": {"type":"Point","coordinates":[-75.673043,45.363634]}, "properties": {"osm_id": 6307525372, "osm_type": "nodes", "capacity": null, "name": "Le Cerf-Volant", "amenity": "kindergarten", "isced_level": null}},{"type": "Feature", "geometry": {"type":"Point","coordinates":[-75.6276512,45.3660363]}, "properties": {"osm_id": 5762394188, "osm_type": "nodes", "capacity": null, "name": "South Keys Greenboro School Age Program", "amenity": "kindergarten", "isced_level": null}},{"type": "Feature", "geometry": {"type":"Point","coordinates":[-75.656829,45.371502]}, "properties": {"osm_id": 6307525212, "osm_type": "nodes", "capacity": null, "name": "Programme Petits pas à trois", "amenity": "kindergarten", "isced_level": null}},{"type": "Feature", "geometry": {"type":"Point","coordinates":[-75.6567975,45.3715439]}, "properties": {"osm_id": 6307525263, "osm_type": "nodes", "capacity": null, "name": "Le Cerf-Volant", "amenity": "kindergarten", "isced_level": null}},{"type": "Feature", "geometry": {"type":"Point","coordinates":[-75.6259462,45.3673278]}, "properties": {"osm_id": 6307525264, "osm_type": "nodes", "capacity": null, "name": "Winterwood Child Care Centre", "amenity": "kindergarten", "isced_level": null}},{"type": "Feature", "geometry": {"type":"Point","coordinates":[-75.64522,45.373855]}, "properties": {"osm_id": 6307525322, "osm_type": "nodes", "capacity": null, "name": "Heron Gate School Age Program", "amenity": "kindergarten", "isced_level": null}},{"type": "Feature", "geometry": {"type":"Point","coordinates":[-75.735381,45.291164]}, "properties": {"osm_id": 6307525336, "osm_type": "nodes", "capacity": null, "name": "Mountshannon School Age Program", "amenity": "kindergarten", "isced_level": null}},{"type": "Feature", "geometry": {"type":"Point","coordinates":[-75.622765,45.352114]}, "properties": {"osm_id": 6307525238, "osm_type": "nodes", "capacity": null, "name": "Programme Petits pas à trois", "amenity": "kindergarten", "isced_level": null}},{"type": "Feature", "geometry": {"type":"Point","coordinates":[-75.623143,45.352078]}, "properties": {"osm_id": 6307525193, "osm_type": "nodes", "capacity": null, "name": "Le Cerf-Volant", "amenity": "kindergarten", "isced_level": null}},{"type": "Feature", "geometry": {"type":"Point","coordinates":[-75.753188,45.3773457]}, "properties": {"osm_id": 6152364095, "osm_type": "nodes", "capacity": null, "name": "Kollel of Ottawa", "amenity": null, "isced_level": null}},{"type": "Feature", "geometry": {"type":"Point","coordinates":[-75.726481,45.28775]}, "properties": {"osm_id": 6307525246, "osm_type": "nodes", "capacity": null, "name": "Centre de l'enfant Aux 4 vents", "amenity": "kindergarten", "isced_level": null}},{"type": "Feature", "geometry": {"type":"Point","coordinates":[-75.731696,45.270208]}, "properties": {"osm_id": 6307525513, "osm_type": "nodes", "capacity": null, "name": "Centre éducatif coopérative Le Manège - Chapman Mills", "amenity": "kindergarten", "isced_level": null}},{"type": "Feature", "geometry": {"type":"Point","coordinates":[-75.724935,45.271426]}, "properties": {"osm_id": 6307525192, "osm_type": "nodes", "capacity": null, "name": "Chapman Mills Early Learning Centre", "amenity": "kindergarten", "isced_level": null}},{"type": "Feature", "geometry": {"type":"Point","coordinates":[-75.7504649,45.3809432]}, "properties": {"osm_id": 5802668942, "osm_type": "nodes", "capacity": null, "name": "Churchill Carling Daycare", "amenity": "kindergarten", "isced_level": null}},{"type": "Feature", "geometry": {"type":"Point","coordinates":[-75.8387464,45.3951342]}, "properties": {"osm_id": 6515420744, "osm_type": "nodes", "capacity": null, "name": "Ecole de Theatre McNicoll", "amenity": null, "isced_level": null}},{"type": "Feature", "geometry": {"type":"Point","coordinates":[-75.8555271,45.4041222]}, "properties": {"osm_id": 7491084745, "osm_type": "nodes", "capacity": null, "name": "Garderie Ponpon", "amenity": "kindergarten", "isced_level": null}},{"type": "Feature", "geometry": {"type":"Point","coordinates":[-75.4001541,45.5862154]}, "properties": {"osm_id": 3690776786, "osm_type": "nodes", "capacity": null, "name": "Relais de la Lièvre-Seigneurie", "amenity": null, "isced_level": null}},{"type": "Feature", "geometry": {"type":"Point","coordinates":[-75.717001,45.28871]}, "properties": {"osm_id": 6307525296, "osm_type": "nodes", "capacity": null, "name": "Children's Village", "amenity": "kindergarten", "isced_level": null}},{"type": "Feature", "geometry": {"type":"Point","coordinates":[-75.779194,45.362398]}, "properties": {"osm_id": 6307525534, "osm_type": "nodes", "capacity": null, "name": "Woodroffe High School Infant Toddler Preschool Program", "amenity": "kindergarten", "isced_level": null}},{"type": "Feature", "geometry": {"type":"Point","coordinates":[-75.68966,45.421011]}, "properties": {"osm_id": 6307525325, "osm_type": "nodes", "capacity": null, "name": "St. Luke's Child Care Centre", "amenity": "kindergarten", "isced_level": null}},{"type": "Feature", "geometry": {"type":"Point","coordinates":[-75.6946675,45.4177494]}, "properties": {"osm_id": 5825966446, "osm_type": "nodes", "capacity": null, "name": "Wellington Child Care Centre", "amenity": "kindergarten", "isced_level": null}},{"type": "Feature", "geometry": {"type":"Point","coordinates":[-75.777061,45.363031]}, "properties": {"osm_id": 6307525239, "osm_type": "nodes", "capacity": null, "name": "Le Cerf-Volant", "amenity": "kindergarten", "isced_level": null}},{"type": "Feature", "geometry": {"type":"Point","coordinates":[-75.768042,45.3634041]}, "properties": {"osm_id": 2424888516, "osm_type": "nodes", "capacity": null, "name": "Ottawa Adventist School", "amenity": "school", "isced_level": "1;2"}},{"type": "Feature", "geometry": {"type":"Point","coordinates":[-75.7500429,45.3700344]}, "properties": {"osm_id": 5741697429, "osm_type": "nodes", "capacity": null, "name": "The Portia Learning Centre", "amenity": null, "isced_level": null}},{"type": "Feature", "geometry": {"type":"Point","coordinates":[-75.9045705,45.3369121]}, "properties": {"osm_id": 6171378394, "osm_type": "nodes", "capacity": null, "name": "Music for Young Children", "amenity": "music_school", "isced_level": null}},{"type": "Feature", "geometry": {"type":"Point","coordinates":[-75.763029,45.4271566]}, "properties": {"osm_id": 6704010005, "osm_type": "nodes", "capacity": null, "name": "Garderie Planète Kids", "amenity": "kindergarten", "isced_level": null}},{"type": "Feature", "geometry": {"type":"Point","coordinates":[-75.7681406,45.369546]}, "properties": {"osm_id": 6152364107, "osm_type": "nodes", "capacity": null, "name": "Canadian School of Natural Nutrition", "amenity": null, "isced_level": null}},{"type": "Feature", "geometry": {"type":"Point","coordinates":[-75.7681849,45.3696119]}, "properties": {"osm_id": 6152364108, "osm_type": "nodes", "capacity": null, "name": "Canadian School of Natural Nutrition", "amenity": null, "isced_level": null}},{"type": "Feature", "geometry": {"type":"Point","coordinates":[-75.7743428,45.369166]}, "properties": {"osm_id": 6195902009, "osm_type": "nodes", "capacity": null, "name": "Kumon", "amenity": "prep_school", "isced_level": null}},{"type": "Feature", "geometry": {"type":"Point","coordinates":[-75.7887219,45.3625961]}, "properties": {"osm_id": 5933253395, "osm_type": "nodes", "capacity": null, "name": "The Marshall Health Clinic", "amenity": null, "isced_level": null}},{"type": "Feature", "geometry": {"type":"Point","coordinates":[-75.7878684,45.3665244]}, "properties": {"osm_id": 3822818994, "osm_type": "nodes", "capacity": null, "name": "Early Years Centre Ottawa West-Nepean", "amenity": "kindergarten", "isced_level": null}},{"type": "Feature", "geometry": {"type":"Point","coordinates":[-75.75574,45.388658]}, "properties": {"osm_id": 6307525370, "osm_type": "nodes", "capacity": null, "name": "Westboro Village Co-operative Preschool", "amenity": "kindergarten", "isced_level": null}},{"type": "Feature", "geometry": {"type":"Point","coordinates":[-75.790358,45.366592]}, "properties": {"osm_id": 6307525342, "osm_type": "nodes", "capacity": null, "name": "REKSAP Centres for Early Learning", "amenity": "kindergarten", "isced_level": null}},{"type": "Feature", "geometry": {"type":"Point","coordinates":[-75.7712053,45.3759861]}, "properties": {"osm_id": 6307525231, "osm_type": "nodes", "capacity": null, "name": "Rainbow Montessori School", "amenity": "kindergarten", "isced_level": null}},{"type": "Feature", "geometry": {"type":"Point","coordinates":[-75.772461,45.38121]}, "properties": {"osm_id": 6307525236, "osm_type": "nodes", "capacity": null, "name": "River Parkway Children's Centre", "amenity": "kindergarten", "isced_level": null}},{"type": "Feature", "geometry": {"type":"Point","coordinates":[-75.800913,45.360105]}, "properties": {"osm_id": 6307525253, "osm_type": "nodes", "capacity": null, "name": "Pinecrest Queensway Headstart Nursery School", "amenity": "kindergarten", "isced_level": null}},{"type": "Feature", "geometry": {"type":"Point","coordinates":[-75.77544,45.436306]}, "properties": {"osm_id": 7499929221, "osm_type": "nodes", "capacity": null, "name": "Garderie éducative Enfantastique du Plateau", "amenity": "kindergarten", "isced_level": null}},{"type": "Feature", "geometry": {"type":"Point","coordinates":[-75.748072,45.404287]}, "properties": {"osm_id": 6307525229, "osm_type": "nodes", "capacity": null, "name": "Keyworth Early Learning Centre", "amenity": "kindergarten", "isced_level": null}},{"type": "Feature", "geometry": {"type":"Point","coordinates":[-75.2257883,45.1002548]}, "properties": {"osm_id": 5811165983, "osm_type": "nodes", "capacity": null, "name": "Happy Face Nursery School (Chesterville)", "amenity": "kindergarten", "isced_level": null}},{"type": "Feature", "geometry": {"type":"Point","coordinates":[-75.757586,45.347566]}, "properties": {"osm_id": 6307525344, "osm_type": "nodes", "capacity": null, "name": "Algonquin College Early Learning Centre", "amenity": "kindergarten", "isced_level": null}},{"type": "Feature", "geometry": {"type":"Point","coordinates":[-75.783017,45.35735]}, "properties": {"osm_id": 6307525369, "osm_type": "nodes", "capacity": null, "name": "REKSAP Centres for Early Learning", "amenity": "kindergarten", "isced_level": null}},{"type": "Feature", "geometry": {"type":"Point","coordinates":[-75.7946651,45.3497237]}, "properties": {"osm_id": 6307525261, "osm_type": "nodes", "capacity": null, "name": "Foster's Farm Day Care Centre", "amenity": "kindergarten", "isced_level": null}},{"type": "Feature", "geometry": {"type":"Point","coordinates":[-75.794377,45.351166]}, "properties": {"osm_id": 6307525523, "osm_type": "nodes", "capacity": null, "name": "MAC Preschool and Childcare", "amenity": "kindergarten", "isced_level": null}},{"type": "Feature", "geometry": {"type":"Point","coordinates":[-75.7943586,45.351069]}, "properties": {"osm_id": 6450319323, "osm_type": "nodes", "capacity": null, "name": "Al Furqan School", "amenity": "school", "isced_level": "1;2"}},{"type": "Feature", "geometry": {"type":"Point","coordinates":[-75.4828361,45.4920964]}, "properties": {"osm_id": 5896600304, "osm_type": "nodes", "capacity": null, "name": "Beva Learning Institute", "amenity": null, "isced_level": null}},{"type": "Feature", "geometry": {"type":"Point","coordinates":[-75.7916311,45.3539668]}, "properties": {"osm_id": 3648139945, "osm_type": "nodes", "capacity": null, "name": "MindWare Academy", "amenity": "school", "isced_level": "1"}},{"type": "Feature", "geometry": {"type":"Point","coordinates":[-75.7676735,45.3519622]}, "properties": {"osm_id": 6307525498, "osm_type": "nodes", "capacity": null, "name": "Le Cerf-Volant", "amenity": "kindergarten", "isced_level": null}},{"type": "Feature", "geometry": {"type":"Point","coordinates":[-75.630878,45.398847]}, "properties": {"osm_id": 6307525300, "osm_type": "nodes", "capacity": null, "name": "Centre éducatif La Clémentine", "amenity": "kindergarten", "isced_level": null}},{"type": "Feature", "geometry": {"type":"Point","coordinates":[-75.493813,45.472601]}, "properties": {"osm_id": 6307525206, "osm_type": "nodes", "capacity": null, "name": "River Heights Children's Centre", "amenity": "kindergarten", "isced_level": null}},{"type": "Feature", "geometry": {"type":"Point","coordinates":[-75.470804,45.471373]}, "properties": {"osm_id": 6307525328, "osm_type": "nodes", "capacity": null, "name": "La Coccinelle, Arc-en-Ciel", "amenity": "kindergarten", "isced_level": null}},{"type": "Feature", "geometry": {"type":"Point","coordinates":[-75.4770492,45.4753451]}, "properties": {"osm_id": 773199907, "osm_type": "nodes", "capacity": null, "name": "Charlemagne Child Care Services", "amenity": "kindergarten", "isced_level": null}},{"type": "Feature", "geometry": {"type":"Point","coordinates":[-75.48048,45.478761]}, "properties": {"osm_id": 6307525358, "osm_type": "nodes", "capacity": null, "name": "St. Francis of Assisi Early Learning Centre", "amenity": "kindergarten", "isced_level": null}},{"type": "Feature", "geometry": {"type":"Point","coordinates":[-75.4818747,45.4737884]}, "properties": {"osm_id": 6307525331, "osm_type": "nodes", "capacity": null, "name": "MIFO-école des Pionniers", "amenity": "kindergarten", "isced_level": null}},{"type": "Feature", "geometry": {"type":"Point","coordinates":[-75.48639,45.481375]}, "properties": {"osm_id": 6307525308, "osm_type": "nodes", "capacity": null, "name": "Fallingbrook School Age Program", "amenity": "kindergarten", "isced_level": null}},{"type": "Feature", "geometry": {"type":"Point","coordinates":[-75.654859,45.405797]}, "properties": {"osm_id": 6307525500, "osm_type": "nodes", "capacity": null, "name": "Riverview Kindergarten and School Age Program", "amenity": "kindergarten", "isced_level": null}},{"type": "Feature", "geometry": {"type":"Point","coordinates":[-75.466666,45.457595]}, "properties": {"osm_id": 6307525507, "osm_type": "nodes", "capacity": null, "name": "Avalon YMCA-YWCA Child Care", "amenity": "kindergarten", "isced_level": null}},{"type": "Feature", "geometry": {"type":"Point","coordinates":[-75.9032857,45.2702213]}, "properties": {"osm_id": 6307525210, "osm_type": "nodes", "capacity": null, "name": "Programme Petits pas à trois", "amenity": "kindergarten", "isced_level": null}},{"type": "Feature", "geometry": {"type":"Point","coordinates":[-75.9068064,45.2804809]}, "properties": {"osm_id": 5889507832, "osm_type": "nodes", "capacity": null, "name": "Dolphin Tale Child Care", "amenity": "kindergarten", "isced_level": null}},{"type": "Feature", "geometry": {"type":"Point","coordinates":[-75.4986348,45.4672013]}, "properties": {"osm_id": 6307525488, "osm_type": "nodes", "capacity": null, "name": "Children's Universe", "amenity": "kindergarten", "isced_level": null}},{"type": "Feature", "geometry": {"type":"Point","coordinates":[-75.646033,45.392495]}, "properties": {"osm_id": 6307525352, "osm_type": "nodes", "capacity": null, "name": "Service à l'enfance Aladin Childcare Services", "amenity": "kindergarten", "isced_level": null}},{"type": "Feature", "geometry": {"type":"Point","coordinates":[-75.642847,45.4262048]}, "properties": {"osm_id": 6307525380, "osm_type": "nodes", "capacity": null, "name": "Overbrook Daycare", "amenity": "kindergarten", "isced_level": null}},{"type": "Feature", "geometry": {"type":"Point","coordinates":[-75.3014638,45.542141]}, "properties": {"osm_id": 6600368482, "osm_type": "nodes", "capacity": null, "name": "Tiny Hoppers", "amenity": "kindergarten", "isced_level": null}},{"type": "Feature", "geometry": {"type":"Point","coordinates":[-75.552247,45.473617]}, "properties": {"osm_id": 6307525211, "osm_type": "nodes", "capacity": null, "name": "MIFO école des Voyageurs", "amenity": "kindergarten", "isced_level": null}},{"type": "Feature", "geometry": {"type":"Point","coordinates":[-75.5113789,45.4798081]}, "properties": {"osm_id": 974591951, "osm_type": "nodes", "capacity": null, "name": "Early Years Centre", "amenity": "kindergarten", "isced_level": null}},{"type": "Feature", "geometry": {"type":"Point","coordinates":[-75.6819705,45.4325039]}, "properties": {"osm_id": 6307525228, "osm_type": "nodes", "capacity": null, "name": "Programme Petits pas à trois", "amenity": "kindergarten", "isced_level": null}},{"type": "Feature", "geometry": {"type":"Point","coordinates":[-75.681736,45.432471]}, "properties": {"osm_id": 6307525195, "osm_type": "nodes", "capacity": null, "name": "Service à l'enfance Aladin", "amenity": "kindergarten", "isced_level": null}},{"type": "Feature", "geometry": {"type":"Point","coordinates":[-75.6679299,45.375812]}, "properties": {"osm_id": 6591810867, "osm_type": "nodes", "capacity": null, "name": "École Alanwar School", "amenity": "school", "isced_level": null}},{"type": "Feature", "geometry": {"type":"Point","coordinates":[-75.6674093,45.3753435]}, "properties": {"osm_id": 6307525222, "osm_type": "nodes", "capacity": null, "name": "Kinderville", "amenity": "kindergarten", "isced_level": null}},{"type": "Feature", "geometry": {"type":"Point","coordinates":[-75.685334,45.406428]}, "properties": {"osm_id": 6307525267, "osm_type": "nodes", "capacity": null, "name": "Glebe Parents' Daycare", "amenity": "kindergarten", "isced_level": null}},{"type": "Feature", "geometry": {"type":"Point","coordinates":[-75.683975,45.393568]}, "properties": {"osm_id": 6307525251, "osm_type": "nodes", "capacity": null, "name": "Glebe Parents' Daycare", "amenity": "kindergarten", "isced_level": null}},{"type": "Feature", "geometry": {"type":"Point","coordinates":[-75.665299,45.383829]}, "properties": {"osm_id": 6307525332, "osm_type": "nodes", "capacity": null, "name": "Andrew Fleck Child Care", "amenity": "kindergarten", "isced_level": null}},{"type": "Feature", "geometry": {"type":"Point","coordinates":[-75.570547,45.434619]}, "properties": {"osm_id": 6307525337, "osm_type": "nodes", "capacity": null, "name": "Children's Universe Child Care", "amenity": "kindergarten", "isced_level": null}},{"type": "Feature", "geometry": {"type":"Point","coordinates":[-75.667318,45.429334]}, "properties": {"osm_id": 6307525271, "osm_type": "nodes", "capacity": null, "name": "Edgewood Child Care Centre", "amenity": "kindergarten", "isced_level": null}},{"type": "Feature", "geometry": {"type":"Point","coordinates":[-75.678277,45.411959]}, "properties": {"osm_id": 6307525506, "osm_type": "nodes", "capacity": null, "name": "Rainbow Kidschool", "amenity": "kindergarten", "isced_level": null}},{"type": "Feature", "geometry": {"type":"Point","coordinates":[-75.658864,45.42821]}, "properties": {"osm_id": 6307525521, "osm_type": "nodes", "capacity": null, "name": "C.P.E. du Rocher", "amenity": "kindergarten", "isced_level": null}},{"type": "Feature", "geometry": {"type":"Point","coordinates":[-75.658898,45.428245]}, "properties": {"osm_id": 6307525360, "osm_type": "nodes", "capacity": null, "name": "Making Connections Nursery School", "amenity": "kindergarten", "isced_level": null}},{"type": "Feature", "geometry": {"type":"Point","coordinates":[-75.2392516,45.332899]}, "properties": {"osm_id": 6450415980, "osm_type": "nodes", "capacity": null, "name": "Academia Stella Maris", "amenity": "school", "isced_level": "1;2"}},{"type": "Feature", "geometry": {"type":"Point","coordinates":[-75.6818153,45.4233125]}, "properties": {"osm_id": 6307525305, "osm_type": "nodes", "capacity": null, "name": "Garderie Bernadette Child Care Centre", "amenity": "kindergarten", "isced_level": null}},{"type": "Feature", "geometry": {"type":"Point","coordinates":[-75.661575,45.384112]}, "properties": {"osm_id": 6307525371, "osm_type": "nodes", "capacity": null, "name": "St. Thomas the Apostle Nursery School", "amenity": "kindergarten", "isced_level": null}},{"type": "Feature", "geometry": {"type":"Point","coordinates":[-75.471709,45.236592]}, "properties": {"osm_id": 6307525199, "osm_type": "nodes", "capacity": null, "name": "Metcalfe Co-operative Nursery School", "amenity": "kindergarten", "isced_level": null}},{"type": "Feature", "geometry": {"type":"Point","coordinates":[-75.8013789,45.4026083]}, "properties": {"osm_id": 9773935569, "osm_type": "nodes", "capacity": null, "name": "Garderie Pouponnière Rêve d'enfance", "amenity": "kindergarten", "isced_level": null}},{"type": "Feature", "geometry": {"type":"Point","coordinates":[-75.6799651,45.4117888]}, "properties": {"osm_id": 2143367249, "osm_type": "nodes", "capacity": null, "name": "Riverside Montessori Pre-School", "amenity": "kindergarten", "isced_level": null}},{"type": "Feature", "geometry": {"type":"Point","coordinates":[-75.8718556,45.2873963]}, "properties": {"osm_id": 6135397729, "osm_type": "nodes", "capacity": null, "name": "Universe DanceArt", "amenity": null, "isced_level": null}},{"type": "Feature", "geometry": {"type":"Point","coordinates":[-75.648563,45.4290766]}, "properties": {"osm_id": 6021054497, "osm_type": "nodes", "capacity": null, "name": "M.F. McHugh Education Centre", "amenity": "school", "isced_level": "1;2;3"}},{"type": "Feature", "geometry": {"type":"Point","coordinates":[-75.6529713,45.4074405]}, "properties": {"osm_id": 5799894636, "osm_type": "nodes", "capacity": null, "name": "Ottawa Montessori School", "amenity": "kindergarten", "isced_level": null}},{"type": "Feature", "geometry": {"type":"Point","coordinates":[-75.6414381,45.4204589]}, "properties": {"osm_id": 4597282734, "osm_type": "nodes", "capacity": null, "name": "Storefront School", "amenity": "school", "isced_level": "3"}},{"type": "Feature", "geometry": {"type":"Point","coordinates":[-75.530321,45.437696]}, "properties": {"osm_id": 6307525290, "osm_type": "nodes", "capacity": null, "name": "La Coccinelle", "amenity": "kindergarten", "isced_level": null}},{"type": "Feature", "geometry": {"type":"Point","coordinates":[-75.3999317,45.5867155]}, "properties": {"osm_id": 6720197541, "osm_type": "nodes", "capacity": null, "name": "Commission scolaire au Cœur-des-Vallées", "amenity": null, "isced_level": null}},{"type": "Feature", "geometry": {"type":"Point","coordinates":[-75.624619,45.378738]}, "properties": {"osm_id": 6071971306, "osm_type": "nodes", "capacity": null, "name": "Probots Ottawa", "amenity": null, "isced_level": null}},{"type": "Feature", "geometry": {"type":"Point","coordinates":[-75.7191578,45.4057597]}, "properties": {"osm_id": 6307525508, "osm_type": "nodes", "capacity": null, "name": "Devonshire School Age Day Care", "amenity": "kindergarten", "isced_level": null}},{"type": "Feature", "geometry": {"type":"Point","coordinates":[-75.6265059,45.3811957]}, "properties": {"osm_id": 6021173080, "osm_type": "nodes", "capacity": null, "name": "Le Carrefour Adult School", "amenity": "school", "isced_level": "3"}},{"type": "Feature", "geometry": {"type":"Point","coordinates":[-75.6260204,45.3813614]}, "properties": {"osm_id": 6023928132, "osm_type": "nodes", "capacity": null, "name": "L'Alternative Public High School", "amenity": "school", "isced_level": "3"}},{"type": "Feature", "geometry": {"type":"Point","coordinates":[-75.7100542,45.4045767]}, "properties": {"osm_id": 4597272904, "osm_type": "nodes", "capacity": null, "name": "Family Reception Centre", "amenity": "school", "isced_level": "3"}},{"type": "Feature", "geometry": {"type":"Point","coordinates":[-75.7091262,45.4105467]}, "properties": {"osm_id": 6307525257, "osm_type": "nodes", "capacity": null, "name": "Nanny Goat Hill Nursery School", "amenity": "kindergarten", "isced_level": null}},{"type": "Feature", "geometry": {"type":"Point","coordinates":[-75.7027904,45.4096996]}, "properties": {"osm_id": 4597272903, "osm_type": "nodes", "capacity": null, "name": "First Place Alternate Program", "amenity": "school", "isced_level": "3"}},{"type": "Feature", "geometry": {"type":"Point","coordinates":[-75.8987811,45.3404749]}, "properties": {"osm_id": 6307525190, "osm_type": "nodes", "capacity": null, "name": "Kanata North Early Learning Centre", "amenity": "kindergarten", "isced_level": null}},{"type": "Feature", "geometry": {"type":"Point","coordinates":[-75.6934352,45.4317671]}, "properties": {"osm_id": 4494695327, "osm_type": "nodes", "capacity": null, "name": "Gina's College Of Advanced Aesthetics", "amenity": null, "isced_level": null}},{"type": "Feature", "geometry": {"type":"Point","coordinates":[-75.461029,45.459343]}, "properties": {"osm_id": 6307525363, "osm_type": "nodes", "capacity": null, "name": "La Coccinelle, Des Sentiers", "amenity": "kindergarten", "isced_level": null}},{"type": "Feature", "geometry": {"type":"Point","coordinates":[-75.50846,45.472581]}, "properties": {"osm_id": 6307525510, "osm_type": "nodes", "capacity": null, "name": "La Coccinelle École la Source", "amenity": "kindergarten", "isced_level": null}},{"type": "Feature", "geometry": {"type":"Point","coordinates":[-75.485225,45.465326]}, "properties": {"osm_id": 6307525256, "osm_type": "nodes", "capacity": null, "name": "Centre parascolaire Alpha 3-12 d'Orléans", "amenity": "kindergarten", "isced_level": null}},{"type": "Feature", "geometry": {"type":"Point","coordinates":[-75.545416,45.46686]}, "properties": {"osm_id": 6307525284, "osm_type": "nodes", "capacity": null, "name": "The Orleans Preschool", "amenity": "kindergarten", "isced_level": null}},{"type": "Feature", "geometry": {"type":"Point","coordinates":[-75.597654,45.460524]}, "properties": {"osm_id": 6307525285, "osm_type": "nodes", "capacity": null, "name": "Petits pas à trois école", "amenity": "kindergarten", "isced_level": null}},{"type": "Feature", "geometry": {"type":"Point","coordinates":[-75.692514,45.403424]}, "properties": {"osm_id": 6307525357, "osm_type": "nodes", "capacity": null, "name": "Glebe Montessori School", "amenity": "kindergarten", "isced_level": null}},{"type": "Feature", "geometry": {"type":"Point","coordinates":[-75.689328,45.411217]}, "properties": {"osm_id": 6307525365, "osm_type": "nodes", "capacity": null, "name": "Taggart Family Y Child Care Centre", "amenity": "kindergarten", "isced_level": null}},{"type": "Feature", "geometry": {"type":"Point","coordinates":[-75.692499,45.4035311]}, "properties": {"osm_id": 6020505572, "osm_type": "nodes", "capacity": null, "name": "Glebe Montessori School", "amenity": "school", "isced_level": "0;1"}},{"type": "Feature", "geometry": {"type":"Point","coordinates":[-75.8308647,45.392741]}, "properties": {"osm_id": 7494648980, "osm_type": "nodes", "capacity": null, "name": "CPE Grande Rivière", "amenity": "kindergarten", "isced_level": null}},{"type": "Feature", "geometry": {"type":"Point","coordinates":[-75.7519421,45.3752326]}, "properties": {"osm_id": 6450319318, "osm_type": "nodes", "capacity": null, "name": "Edelweiss Private Academy", "amenity": "school", "isced_level": "1"}},{"type": "Feature", "geometry": {"type":"Point","coordinates":[-75.473805,45.447073]}, "properties": {"osm_id": 6307525362, "osm_type": "nodes", "capacity": null, "name": "La Coccinelle Alain Fortin", "amenity": "kindergarten", "isced_level": null}},{"type": "Feature", "geometry": {"type":"Point","coordinates":[-75.6339026,45.4078636]}, "properties": {"osm_id": 11778615171, "osm_type": "nodes", "capacity": null, "name": "Ottawa Circus School", "amenity": null, "isced_level": null}},{"type": "Feature", "geometry": {"type":"Point","coordinates":[-75.680926,45.391051]}, "properties": {"osm_id": 6307525293, "osm_type": "nodes", "capacity": null, "name": "Capital Day Care Centre", "amenity": "kindergarten", "isced_level": null}},{"type": "Feature", "geometry": {"type":"Point","coordinates":[-75.6828705,45.4008672]}, "properties": {"osm_id": 5674062434, "osm_type": "nodes", "capacity": null, "name": "The Element", "amenity": "school", "isced_level": "1;2;3"}},{"type": "Feature", "geometry": {"type":"Point","coordinates":[-75.5281941,45.4835962]}, "properties": {"osm_id": 6307525301, "osm_type": "nodes", "capacity": null, "name": "Kidz Only Child Care", "amenity": "kindergarten", "isced_level": null}},{"type": "Feature", "geometry": {"type":"Point","coordinates":[-75.88507,45.296066]}, "properties": {"osm_id": 6307525382, "osm_type": "nodes", "capacity": null, "name": "Glen Cairn Coop Preschool", "amenity": "kindergarten", "isced_level": null}},{"type": "Feature", "geometry": {"type":"Point","coordinates":[-75.83427,45.191202]}, "properties": {"osm_id": 6307525269, "osm_type": "nodes", "capacity": null, "name": "Richmond Cooperative Nursery School", "amenity": "kindergarten", "isced_level": null}},{"type": "Feature", "geometry": {"type":"Point","coordinates":[-75.7023479,45.409872]}, "properties": {"osm_id": 4597272902, "osm_type": "nodes", "capacity": null, "name": "Reality Check", "amenity": "school", "isced_level": "3"}},{"type": "Feature", "geometry": {"type":"Point","coordinates":[-75.735887,45.394353]}, "properties": {"osm_id": 6307525343, "osm_type": "nodes", "capacity": null, "name": "Elmdale Kindergarten School Age Program", "amenity": "kindergarten", "isced_level": null}},{"type": "Feature", "geometry": {"type":"Point","coordinates":[-75.3038254,45.2670085]}, "properties": {"osm_id": 6405169718, "osm_type": "nodes", "capacity": null, "name": "TR Leger School", "amenity": null, "isced_level": null}},{"type": "Feature", "geometry": {"type":"Point","coordinates":[-75.752329,45.393165]}, "properties": {"osm_id": 5877024898, "osm_type": "nodes", "capacity": null, "name": "Westboro Montessori School", "amenity": "kindergarten", "isced_level": "0"}},{"type": "Feature", "geometry": {"type":"Point","coordinates":[-75.3494229,45.5228675]}, "properties": {"osm_id": 4597002049, "osm_type": "nodes", "capacity": null, "name": "MacSkimming Outdoor Education Centre", "amenity": "school", "isced_level": "3"}},{"type": "Feature", "geometry": {"type":"Point","coordinates":[-75.631299,45.39019]}, "properties": {"osm_id": 6307525252, "osm_type": "nodes", "capacity": null, "name": "Le Carrefour d'Ottawa", "amenity": "kindergarten", "isced_level": null}},{"type": "Feature", "geometry": {"type":"Point","coordinates":[-75.6625635,45.3678034]}, "properties": {"osm_id": 5833495169, "osm_type": "nodes", "capacity": null, "name": "Future Scholars", "amenity": "kindergarten", "isced_level": null}},{"type": "Feature", "geometry": {"type":"Point","coordinates":[-75.7982689,45.4338702]}, "properties": {"osm_id": 12335908481, "osm_type": "nodes", "capacity": null, "name": "Garderie Fantastique", "amenity": "kindergarten", "isced_level": null}},{"type": "Feature", "geometry": {"type":"Point","coordinates":[-75.762879,45.363058]}, "properties": {"osm_id": 6307525364, "osm_type": "nodes", "capacity": null, "name": "Centre de l'enfant Aux 4 vents", "amenity": "kindergarten", "isced_level": null}},{"type": "Feature", "geometry": {"type":"Point","coordinates":[-75.634804,45.348571]}, "properties": {"osm_id": 6307525533, "osm_type": "nodes", "capacity": null, "name": "Centre éducatif La Clémentine", "amenity": "kindergarten", "isced_level": null}},{"type": "Feature", "geometry": {"type":"Point","coordinates":[-75.73328,45.3489865]}, "properties": {"osm_id": 5912940531, "osm_type": "nodes", "capacity": null, "name": "Academy of Learning", "amenity": null, "isced_level": null}},{"type": "Feature", "geometry": {"type":"Point","coordinates":[-75.677796,45.450667]}, "properties": {"osm_id": 6307525198, "osm_type": "nodes", "capacity": null, "name": "Rockcliffe Child Care Centre", "amenity": "kindergarten", "isced_level": null}},{"type": "Feature", "geometry": {"type":"Point","coordinates":[-75.683083,45.440486]}, "properties": {"osm_id": 6307525197, "osm_type": "nodes", "capacity": null, "name": "New Edinburgh Community and Arts Centre After School Program", "amenity": "kindergarten", "isced_level": null}},{"type": "Feature", "geometry": {"type":"Point","coordinates":[-75.781803,45.329659]}, "properties": {"osm_id": 6307525496, "osm_type": "nodes", "capacity": null, "name": "St. Mary's Daycare", "amenity": "kindergarten", "isced_level": null}},{"type": "Feature", "geometry": {"type":"Point","coordinates":[-75.691148,45.407307]}, "properties": {"osm_id": 6307525226, "osm_type": "nodes", "capacity": null, "name": "Acorn Early Learning Centre", "amenity": "kindergarten", "isced_level": null}},{"type": "Feature", "geometry": {"type":"Point","coordinates":[-75.628669,45.43997]}, "properties": {"osm_id": 6307525315, "osm_type": "nodes", "capacity": null, "name": "Garderie éducative Renée Tassé", "amenity": "kindergarten", "isced_level": null}},{"type": "Feature", "geometry": {"type":"Point","coordinates":[-75.5857551,45.4557432]}, "properties": {"osm_id": 5864090160, "osm_type": "nodes", "capacity": null, "name": "University of Ottawa Library Annex", "amenity": null, "isced_level": null}},{"type": "Feature", "geometry": {"type":"Point","coordinates":[-75.7028382,45.3307328]}, "properties": {"osm_id": 6147949569, "osm_type": "nodes", "capacity": null, "name": "Little Explorers", "amenity": "kindergarten", "isced_level": null}},{"type": "Feature", "geometry": {"type":"Point","coordinates":[-75.795992,45.3457022]}, "properties": {"osm_id": 6300350771, "osm_type": "nodes", "capacity": null, "name": "Step by Step School of Dance", "amenity": null, "isced_level": null}},{"type": "Feature", "geometry": {"type":"Point","coordinates":[-75.7567339,45.2851704]}, "properties": {"osm_id": 6186714772, "osm_type": "nodes", "capacity": null, "name": "Hummingbird Music", "amenity": "music_school", "isced_level": null}},{"type": "Feature", "geometry": {"type":"Point","coordinates":[-75.6305255,45.4405041]}, "properties": {"osm_id": 6307525366, "osm_type": "nodes", "capacity": null, "name": "Centre Éducatif Brin de Soleil", "amenity": "kindergarten", "isced_level": null}},{"type": "Feature", "geometry": {"type":"Point","coordinates":[-75.460911,45.464884]}, "properties": {"osm_id": 6307525240, "osm_type": "nodes", "capacity": null, "name": "La Coccinelle, De La Découverte", "amenity": "kindergarten", "isced_level": null}},{"type": "Feature", "geometry": {"type":"Point","coordinates":[-75.467331,45.463183]}, "properties": {"osm_id": 6307525258, "osm_type": "nodes", "capacity": null, "name": "Portobello Early Learning Centre", "amenity": "kindergarten", "isced_level": null}},{"type": "Feature", "geometry": {"type":"Point","coordinates":[-75.7026015,45.4097528]}, "properties": {"osm_id": 6020506607, "osm_type": "nodes", "capacity": null, "name": "Richard Pfaff Secondary Alternate Program", "amenity": "school", "isced_level": "3"}},{"type": "Feature", "geometry": {"type":"Point","coordinates":[-75.521509,45.465778]}, "properties": {"osm_id": 6307525324, "osm_type": "nodes", "capacity": null, "name": "Programme Petits pas à trois école St-Joseph", "amenity": "kindergarten", "isced_level": null}},{"type": "Feature", "geometry": {"type":"Point","coordinates":[-75.8634563,45.3547247]}, "properties": {"osm_id": 12099537218, "osm_type": "nodes", "capacity": null, "name": "Out to Play Environmental Education Centre", "amenity": "school", "isced_level": null}},{"type": "Feature", "geometry": {"type":"Point","coordinates":[-75.8718087,45.2895918]}, "properties": {"osm_id": 6135359209, "osm_type": "nodes", "capacity": null, "name": "Blue Sky School", "amenity": "school", "isced_level": "1;2;3"}},{"type": "Feature", "geometry": {"type":"Point","coordinates":[-75.955251,45.376968]}, "properties": {"osm_id": 5294791769, "osm_type": "nodes", "capacity": null, "name": "Kanata Montessori School", "amenity": "school", "isced_level": null}},{"type": "Feature", "geometry": {"type":"Point","coordinates":[-75.2712998,45.5584701]}, "properties": {"osm_id": 6450415979, "osm_type": "nodes", "capacity": null, "name": "Blyth Academy @ CIHA", "amenity": "school", "isced_level": "1;2;3"}},{"type": "Feature", "geometry": {"type":"Point","coordinates":[-75.6520999,45.4018228]}, "properties": {"osm_id": 6307525282, "osm_type": "nodes", "capacity": null, "name": "Ottawa Children's Treatment Centre Preschool", "amenity": "kindergarten", "isced_level": null}},{"type": "Feature", "geometry": {"type":"Point","coordinates":[-75.750391,45.499625]}, "properties": {"osm_id": 7495279194, "osm_type": "nodes", "capacity": null, "name": "CPE de L'Érablière", "amenity": "kindergarten", "isced_level": null}},{"type": "Feature", "geometry": {"type":"Point","coordinates":[-75.69397,45.5223676]}, "properties": {"osm_id": 7495279216, "osm_type": "nodes", "capacity": null, "name": "Garderie Centre d'Éveil devenir Grand", "amenity": "kindergarten", "isced_level": null}},{"type": "Feature", "geometry": {"type":"Point","coordinates":[-75.659954,45.432531]}, "properties": {"osm_id": 6307525233, "osm_type": "nodes", "capacity": null, "name": "Centre éducatif Brin de Soleil", "amenity": "kindergarten", "isced_level": null}},{"type": "Feature", "geometry": {"type":"Point","coordinates":[-75.6598802,45.4325414]}, "properties": {"osm_id": 6307525520, "osm_type": "nodes", "capacity": null, "name": "Programme Petits pas à trois", "amenity": "kindergarten", "isced_level": null}},{"type": "Feature", "geometry": {"type":"Point","coordinates":[-75.648509,45.428756]}, "properties": {"osm_id": 6307525527, "osm_type": "nodes", "capacity": null, "name": "Fairview Child Care Centre", "amenity": "kindergarten", "isced_level": null}},{"type": "Feature", "geometry": {"type":"Point","coordinates":[-75.699894,45.366095]}, "properties": {"osm_id": 6307525213, "osm_type": "nodes", "capacity": null, "name": "Carleton Memorial Day Care Centre", "amenity": "kindergarten", "isced_level": null}},{"type": "Feature", "geometry": {"type":"Point","coordinates":[-75.566431,45.432346]}, "properties": {"osm_id": 6307525532, "osm_type": "nodes", "capacity": null, "name": "MIFO école Sainte Marie", "amenity": "kindergarten", "isced_level": null}},{"type": "Feature", "geometry": {"type":"Point","coordinates":[-75.3639606,45.2653444]}, "properties": {"osm_id": 6404906142, "osm_type": "nodes", "capacity": null, "name": "Garderie l'Arche des amis", "amenity": "kindergarten", "isced_level": null}},{"type": "Feature", "geometry": {"type":"Point","coordinates":[-75.6483859,45.4276126]}, "properties": {"osm_id": 6090096667, "osm_type": "nodes", "capacity": null, "name": "Providence Academy Antonine Sisters", "amenity": "school", "isced_level": "1"}},{"type": "Feature", "geometry": {"type":"Point","coordinates":[-75.6045587,45.4268121]}, "properties": {"osm_id": 5949934394, "osm_type": "nodes", "capacity": null, "name": "Children's Aid Society Headstart Nursery", "amenity": "kindergarten", "isced_level": null}},{"type": "Feature", "geometry": {"type":"Point","coordinates":[-75.4849192,45.4470105]}, "properties": {"osm_id": 12058242269, "osm_type": "nodes", "capacity": null, "name": "Notre-Place Catholic Elementary School", "amenity": "school", "isced_level": null}},{"type": "Feature", "geometry": {"type":"Point","coordinates":[-75.7570518,45.3436066]}, "properties": {"osm_id": 6453133827, "osm_type": "nodes", "capacity": null, "name": "Capital International Academy School", "amenity": "school", "isced_level": "3"}},{"type": "Feature", "geometry": {"type":"Point","coordinates":[-75.682913,45.284734]}, "properties": {"osm_id": 6307525200, "osm_type": "nodes", "capacity": null, "name": "Centre Éducatif La Clémentine Bernard - Grandmaître", "amenity": "kindergarten", "isced_level": null}},{"type": "Feature", "geometry": {"type":"Point","coordinates":[-75.6395602,45.0074895]}, "properties": {"osm_id": 5830850141, "osm_type": "nodes", "capacity": null, "name": "TR Leger School - Kemptville", "amenity": "school", "isced_level": "3"}},{"type": "Feature", "geometry": {"type":"Point","coordinates":[-75.893243,45.328544]}, "properties": {"osm_id": 6307525202, "osm_type": "nodes", "capacity": null, "name": "Kanata Research Park Family Centre - Summer Camp Program", "amenity": "kindergarten", "isced_level": null}},{"type": "Feature", "geometry": {"type":"Point","coordinates":[-75.3638374,45.2649082]}, "properties": {"osm_id": 12657022879, "osm_type": "nodes", "capacity": null, "name": "St. Joseph Russell Catholic Elementary School", "amenity": null, "isced_level": null}},{"type": "Feature", "geometry": {"type":"Point","coordinates":[-75.3648097,45.2663818]}, "properties": {"osm_id": 12657022884, "osm_type": "nodes", "capacity": null, "name": "Russell High School", "amenity": null, "isced_level": null}},{"type": "Feature", "geometry": {"type":"Point","coordinates":[-75.682653,45.394403]}, "properties": {"osm_id": 6307525525, "osm_type": "nodes", "capacity": null, "name": "Glebe Reggio Centre", "amenity": "kindergarten", "isced_level": null}},{"type": "Feature", "geometry": {"type":"Point","coordinates":[-75.509881,45.47192]}, "properties": {"osm_id": 6307525221, "osm_type": "nodes", "capacity": null, "name": "Programme Petits pas à trois école Reines-des-Bois", "amenity": "kindergarten", "isced_level": null}},{"type": "Feature", "geometry": {"type":"Point","coordinates":[-75.50935,45.47172]}, "properties": {"osm_id": 6307525232, "osm_type": "nodes", "capacity": null, "name": "La Coccinelle Reine des Bois", "amenity": "kindergarten", "isced_level": null}},{"type": "Feature", "geometry": {"type":"Point","coordinates":[-75.521679,45.465923]}, "properties": {"osm_id": 6307525234, "osm_type": "nodes", "capacity": null, "name": "MIFO école St. Joseph d'Orléans", "amenity": "kindergarten", "isced_level": null}},{"type": "Feature", "geometry": {"type":"Point","coordinates":[-75.4571539,45.3703638]}, "properties": {"osm_id": 6450319322, "osm_type": "nodes", "capacity": null, "name": "Canada Knowledge Academy", "amenity": "school", "isced_level": "1;2"}},{"type": "Feature", "geometry": {"type":"Point","coordinates":[-75.723919,45.402415]}, "properties": {"osm_id": 6307525254, "osm_type": "nodes", "capacity": null, "name": "Le Carrefour d'Ottawa", "amenity": "kindergarten", "isced_level": null}},{"type": "Feature", "geometry": {"type":"Point","coordinates":[-75.711386,45.427027]}, "properties": {"osm_id": 7501814702, "osm_type": "nodes", "capacity": null, "name": "CPE Le Baluchon (Jos-Montferrand)", "amenity": "kindergarten", "isced_level": null}},{"type": "Feature", "geometry": {"type":"Point","coordinates":[-75.8588592,45.2786366]}, "properties": {"osm_id": 6307525340, "osm_type": "nodes", "capacity": null, "name": "Centre préscolaire et parascolaire l'Étoile filante de Kanata Sud", "amenity": "kindergarten", "isced_level": null}},{"type": "Feature", "geometry": {"type":"Point","coordinates":[-75.7144612,45.4369569]}, "properties": {"osm_id": 11635856969, "osm_type": "nodes", "capacity": null, "name": "Garderie Préscolaire de Hull", "amenity": "kindergarten", "isced_level": null}},{"type": "Feature", "geometry": {"type":"Point","coordinates":[-75.5510014,45.4636672]}, "properties": {"osm_id": 6266617122, "osm_type": "nodes", "capacity": null, "name": "Early Learning ABA", "amenity": null, "isced_level": null}},{"type": "Feature", "geometry": {"type":"Point","coordinates":[-75.7498124,45.3647822]}, "properties": {"osm_id": 6308460140, "osm_type": "nodes", "capacity": null, "name": "Playtime Daycare Centre", "amenity": "kindergarten", "isced_level": null}},{"type": "Feature", "geometry": {"type":"Point","coordinates":[-75.698081,45.411737]}, "properties": {"osm_id": 6307525494, "osm_type": "nodes", "capacity": null, "name": "Centretown Parents' Day Care", "amenity": "kindergarten", "isced_level": null}},{"type": "Feature", "geometry": {"type":"Point","coordinates":[-75.6850894,45.3981637]}, "properties": {"osm_id": 5674062430, "osm_type": "nodes", "capacity": null, "name": "Blyth Academy The Glebe", "amenity": "school", "isced_level": null}},{"type": "Feature", "geometry": {"type":"Point","coordinates":[-75.675311,45.426]}, "properties": {"osm_id": 6307525530, "osm_type": "nodes", "capacity": null, "name": "Bettye Hyde Cooperative Early Learning Centre", "amenity": "kindergarten", "isced_level": null}},{"type": "Feature", "geometry": {"type":"Point","coordinates":[-75.9333989,45.2621284]}, "properties": {"osm_id": 6340425058, "osm_type": "nodes", "capacity": null, "name": "Stittsville Co-op Nursery School", "amenity": "kindergarten", "isced_level": null}},{"type": "Feature", "geometry": {"type":"Point","coordinates":[-75.648946,45.405872]}, "properties": {"osm_id": 6307525333, "osm_type": "nodes", "capacity": null, "name": "Alta Vista Co-operative Nursery School", "amenity": "kindergarten", "isced_level": null}},{"type": "Feature", "geometry": {"type":"Point","coordinates":[-75.7343422,45.4354061]}, "properties": {"osm_id": 7498779234, "osm_type": "nodes", "capacity": null, "name": "CPE Aux Trois Pommes (Berri)", "amenity": "kindergarten", "isced_level": null}},{"type": "Feature", "geometry": {"type":"Point","coordinates":[-75.6937919,45.5222721]}, "properties": {"osm_id": 7495279217, "osm_type": "nodes", "capacity": null, "name": "Garderie Ami calin garderie", "amenity": "kindergarten", "isced_level": null}},{"type": "Feature", "geometry": {"type":"Point","coordinates":[-75.9504926,45.3081097]}, "properties": {"osm_id": 6362992772, "osm_type": "nodes", "capacity": null, "name": "Kanata Creative Kindergarten", "amenity": "kindergarten", "isced_level": null}},{"type": "Feature", "geometry": {"type":"Point","coordinates":[-75.636011,45.442538]}, "properties": {"osm_id": 6307525247, "osm_type": "nodes", "capacity": null, "name": "Sunflower Co-operative Day Nursery", "amenity": "kindergarten", "isced_level": null}},{"type": "Feature", "geometry": {"type":"Point","coordinates":[-75.597562,45.492325]}, "properties": {"osm_id": 7495226670, "osm_type": "nodes", "capacity": null, "name": "Garderie Centre éducatif à pas de géant", "amenity": "kindergarten", "isced_level": null}},{"type": "Feature", "geometry": {"type":"Point","coordinates":[-75.7907407,45.346877]}, "properties": {"osm_id": 6307525220, "osm_type": "nodes", "capacity": null, "name": "Acadekidz", "amenity": "kindergarten", "isced_level": null}},{"type": "Feature", "geometry": {"type":"Point","coordinates":[-75.8282152,45.3160351]}, "properties": {"osm_id": 6307525288, "osm_type": "nodes", "capacity": null, "name": "Bells Corners Cooperative Nursery School", "amenity": "kindergarten", "isced_level": null}},{"type": "Feature", "geometry": {"type":"Point","coordinates":[-75.458283,45.468728]}, "properties": {"osm_id": 6307525367, "osm_type": "nodes", "capacity": null, "name": "La Coccinelle, Béatrice-Desloges", "amenity": "kindergarten", "isced_level": null}},{"type": "Feature", "geometry": {"type":"Point","coordinates":[-75.7365625,45.469888]}, "properties": {"osm_id": 7502022231, "osm_type": "nodes", "capacity": null, "name": "Garderie la petite école vision Gatineau", "amenity": "kindergarten", "isced_level": null}},{"type": "Feature", "geometry": {"type":"Point","coordinates":[-75.7091669,45.2816594]}, "properties": {"osm_id": 6307525511, "osm_type": "nodes", "capacity": null, "name": "Mothercraft Ottawa", "amenity": "kindergarten", "isced_level": null}},{"type": "Feature", "geometry": {"type":"Point","coordinates":[-75.474557,45.469376]}, "properties": {"osm_id": 6307525346, "osm_type": "nodes", "capacity": null, "name": "Gardenway School Age Program", "amenity": "kindergarten", "isced_level": null}},{"type": "Feature", "geometry": {"type":"Point","coordinates":[-75.680381,45.430734]}, "properties": {"osm_id": 6392073520, "osm_type": "nodes", "capacity": null, "name": "Nunavut Sivuniksavut", "amenity": null, "isced_level": null}},{"type": "Feature", "geometry": {"type":"Point","coordinates":[-75.6612798,45.4281854]}, "properties": {"osm_id": 4403545847, "osm_type": "nodes", "capacity": null, "name": "Programme de langue internationale à l'élémentaire", "amenity": "school", "isced_level": "1"}},{"type": "Feature", "geometry": {"type":"Point","coordinates":[-75.6612754,45.4277778]}, "properties": {"osm_id": 6021054580, "osm_type": "nodes", "capacity": null, "name": "Continuing Education", "amenity": "school", "isced_level": "3"}},{"type": "Feature", "geometry": {"type":"Point","coordinates":[-75.6580338,45.4256101]}, "properties": {"osm_id": 6307525378, "osm_type": "nodes", "capacity": null, "name": "Makonsag Aboriginal Head Start Inc", "amenity": "kindergarten", "isced_level": null}},{"type": "Feature", "geometry": {"type":"Point","coordinates":[-75.7944114,45.3543126]}, "properties": {"osm_id": 6307525278, "osm_type": "nodes", "capacity": null, "name": "Queensway West Montessori School", "amenity": "kindergarten", "isced_level": null}},{"type": "Feature", "geometry": {"type":"Point","coordinates":[-75.6086726,45.4097444]}, "properties": {"osm_id": 6157727292, "osm_type": "nodes", "capacity": null, "name": "North American Transport Driving Academy", "amenity": null, "isced_level": null}},{"type": "Feature", "geometry": {"type":"Point","coordinates":[-75.683633,45.43364]}, "properties": {"osm_id": 6307525341, "osm_type": "nodes", "capacity": null, "name": "Centre Éducatif Beausoleil", "amenity": "kindergarten", "isced_level": null}},{"type": "Feature", "geometry": {"type":"Point","coordinates":[-75.6814536,45.4346575]}, "properties": {"osm_id": 6450319319, "osm_type": "nodes", "capacity": null, "name": "École Notre-Dame du Mont Carmel", "amenity": "school", "isced_level": "1;2;3"}},{"type": "Feature", "geometry": {"type":"Point","coordinates":[-75.7337433,45.4372614]}, "properties": {"osm_id": 6465108245, "osm_type": "nodes", "capacity": null, "name": "SOS Études", "amenity": null, "isced_level": null}},{"type": "Feature", "geometry": {"type":"Point","coordinates":[-75.7335496,45.4351313]}, "properties": {"osm_id": 7498779233, "osm_type": "nodes", "capacity": null, "name": "CPE des Premiers pas (Taschereau)", "amenity": "kindergarten", "isced_level": null}},{"type": "Feature", "geometry": {"type":"Point","coordinates":[-75.6939627,45.4319684]}, "properties": {"osm_id": 4751120499, "osm_type": "nodes", "capacity": null, "name": "C'est Bon Cooking", "amenity": null, "isced_level": null}},{"type": "Feature", "geometry": {"type":"Point","coordinates":[-75.6913643,45.4294703]}, "properties": {"osm_id": 6981809492, "osm_type": "nodes", "capacity": null, "name": "Canadian National Institute of Health", "amenity": null, "isced_level": null}},{"type": "Feature", "geometry": {"type":"Point","coordinates":[-75.6903329,45.4282584]}, "properties": {"osm_id": 6318853809, "osm_type": "nodes", "capacity": null, "name": "Ritmo Baile Dance School", "amenity": null, "isced_level": null}},{"type": "Feature", "geometry": {"type":"Point","coordinates":[-75.7153004,45.4259481]}, "properties": {"osm_id": 6719059026, "osm_type": "nodes", "capacity": null, "name": "CPE du Portage", "amenity": "kindergarten", "isced_level": null}},{"type": "Feature", "geometry": {"type":"Point","coordinates":[-75.6954668,45.4221482]}, "properties": {"osm_id": 5941722840, "osm_type": "nodes", "capacity": null, "name": "Algonquin Careers Academy", "amenity": null, "isced_level": null}},{"type": "Feature", "geometry": {"type":"Point","coordinates":[-75.6961707,45.4291304]}, "properties": {"osm_id": 4753423228, "osm_type": "nodes", "capacity": null, "name": "Richard Robinson Fashion Design Academy", "amenity": null, "isced_level": null}},{"type": "Feature", "geometry": {"type":"Point","coordinates":[-75.906947,45.2366368]}, "properties": {"osm_id": 6450360196, "osm_type": "nodes", "capacity": null, "name": "Ambassadors Christian School", "amenity": "school", "isced_level": "1;2"}},{"type": "Feature", "geometry": {"type":"Point","coordinates":[-75.7436274,45.4872865]}, "properties": {"osm_id": 7039337960, "osm_type": "nodes", "capacity": null, "name": "Garderie Préscolaire l'excellence", "amenity": "kindergarten", "isced_level": null}},{"type": "Feature", "geometry": {"type":"Point","coordinates":[-75.597452,45.460164]}, "properties": {"osm_id": 6307525354, "osm_type": "nodes", "capacity": null, "name": "Centre éducatif sur un nuage", "amenity": "kindergarten", "isced_level": null}},{"type": "Feature", "geometry": {"type":"Point","coordinates":[-75.702887,45.4168309]}, "properties": {"osm_id": 8880976704, "osm_type": "nodes", "capacity": null, "name": "Local Language Training", "amenity": "language_school", "isced_level": null}},{"type": "Feature", "geometry": {"type":"Point","coordinates":[-75.7425188,45.4581805]}, "properties": {"osm_id": 9307365051, "osm_type": "nodes", "capacity": null, "name": "Garderie Educative Mont Bleu", "amenity": "kindergarten", "isced_level": null}},{"type": "Feature", "geometry": {"type":"Point","coordinates":[-75.7421119,45.4561586]}, "properties": {"osm_id": 6762936910, "osm_type": "nodes", "capacity": null, "name": "SOS Études Outaouais", "amenity": null, "isced_level": null}},{"type": "Feature", "geometry": {"type":"Point","coordinates":[-75.743878,45.285625]}, "properties": {"osm_id": 6307525242, "osm_type": "nodes", "capacity": null, "name": "Centre éducatif coopérative Le Manège", "amenity": "kindergarten", "isced_level": null}},{"type": "Feature", "geometry": {"type":"Point","coordinates":[-75.6945884,45.4396428]}, "properties": {"osm_id": 6307525376, "osm_type": "nodes", "capacity": null, "name": "Centre Éducatif Pinocchio", "amenity": "kindergarten", "isced_level": null}},{"type": "Feature", "geometry": {"type":"Point","coordinates":[-75.7067737,45.4165763]}, "properties": {"osm_id": 4597259658, "osm_type": "nodes", "capacity": null, "name": "ESL/LBS/LINC Programs Adaptive Learning", "amenity": null, "isced_level": "3"}},{"type": "Feature", "geometry": {"type":"Point","coordinates":[-75.7066638,45.4166198]}, "properties": {"osm_id": 4597259661, "osm_type": "nodes", "capacity": null, "name": "Ottawa International Projects Exchanges (OIPE)", "amenity": null, "isced_level": "3"}},{"type": "Feature", "geometry": {"type":"Point","coordinates":[-75.734693,45.407021]}, "properties": {"osm_id": 6307525279, "osm_type": "nodes", "capacity": null, "name": "Garderie Tunney's Day Care", "amenity": "kindergarten", "isced_level": null}},{"type": "Feature", "geometry": {"type":"Point","coordinates":[-75.706446,45.4167061]}, "properties": {"osm_id": 4597259659, "osm_type": "nodes", "capacity": null, "name": "Credit Night Classes / Summer School", "amenity": null, "isced_level": "3"}},{"type": "Feature", "geometry": {"type":"Point","coordinates":[-75.7062283,45.4167923]}, "properties": {"osm_id": 4597259656, "osm_type": "nodes", "capacity": null, "name": "General Interest Programs", "amenity": null, "isced_level": "3"}},{"type": "Feature", "geometry": {"type":"Point","coordinates":[-75.7060548,45.416861]}, "properties": {"osm_id": 4597259657, "osm_type": "nodes", "capacity": null, "name": "Extra-Curricular Creative Arts Program", "amenity": null, "isced_level": "3"}},{"type": "Feature", "geometry": {"type":"Point","coordinates":[-75.7063298,45.4167521]}, "properties": {"osm_id": 4597259660, "osm_type": "nodes", "capacity": null, "name": "Continuing Education", "amenity": null, "isced_level": "3"}},{"type": "Feature", "geometry": {"type":"Point","coordinates":[-75.721792,45.425725]}, "properties": {"osm_id": 7501814704, "osm_type": "nodes", "capacity": null, "name": "CPE Les Terrasses", "amenity": "kindergarten", "isced_level": null}},{"type": "Feature", "geometry": {"type":"Point","coordinates":[-75.7188652,45.425283]}, "properties": {"osm_id": 4579536791, "osm_type": "nodes", "capacity": null, "name": "Université Nationale Autonome du Mexique - Canada", "amenity": null, "isced_level": null}},{"type": "Feature", "geometry": {"type":"Point","coordinates":[-75.7324788,45.4385616]}, "properties": {"osm_id": 8974706682, "osm_type": "nodes", "capacity": null, "name": "Collège Universel - Campus Gatineau", "amenity": "college", "isced_level": null}},{"type": "Feature", "geometry": {"type":"Point","coordinates":[-75.707798,45.4068]}, "properties": {"osm_id": 6307525249, "osm_type": "nodes", "capacity": null, "name": "Dalhousie Parents Daycare Centre", "amenity": "kindergarten", "isced_level": null}},{"type": "Feature", "geometry": {"type":"Point","coordinates":[-75.6631087,45.3673592]}, "properties": {"osm_id": 5833495171, "osm_type": "nodes", "capacity": null, "name": "Versailles Academy", "amenity": null, "isced_level": null}},{"type": "Feature", "geometry": {"type":"Point","coordinates":[-75.7060093,45.4171572]}, "properties": {"osm_id": 6450319320, "osm_type": "nodes", "capacity": null, "name": "Debbie Campbell Learning Academy", "amenity": "school", "isced_level": "3"}},{"type": "Feature", "geometry": {"type":"Point","coordinates":[-75.0932322,45.3092188]}, "properties": {"osm_id": 9239002570, "osm_type": "nodes", "capacity": null, "name": "Les Garderie Quatre Saisons", "amenity": "kindergarten", "isced_level": null}},{"type": "Feature", "geometry": {"type":"Point","coordinates":[-75.0837436,45.3097749]}, "properties": {"osm_id": 3938123458, "osm_type": "nodes", "capacity": null, "name": "Ontario Early Years Centre", "amenity": "kindergarten", "isced_level": null}},{"type": "Feature", "geometry": {"type":"Point","coordinates":[-75.6214596,45.3689961]}, "properties": {"osm_id": 2037688844, "osm_type": "nodes", "capacity": null, "name": "Kumon", "amenity": "prep_school", "isced_level": null}},{"type": "Feature", "geometry": {"type":"Point","coordinates":[-75.7201757,45.4309969]}, "properties": {"osm_id": 7501814701, "osm_type": "nodes", "capacity": null, "name": "Garderie la crèche et plus 2", "amenity": "kindergarten", "isced_level": null}},{"type": "Feature", "geometry": {"type":"Point","coordinates":[-75.7317571,45.430846]}, "properties": {"osm_id": 6462980290, "osm_type": "nodes", "capacity": null, "name": "L'Artishow", "amenity": "music_school", "isced_level": null}},{"type": "Feature", "geometry": {"type":"Point","coordinates":[-76.2919551,45.3313101]}, "properties": {"osm_id": 3952917522, "osm_type": "nodes", "capacity": null, "name": "Linda Lowe Daycare Centre", "amenity": "kindergarten", "isced_level": null}},{"type": "Feature", "geometry": {"type":"Point","coordinates":[-75.749791,45.3959949]}, "properties": {"osm_id": 5720740862, "osm_type": "nodes", "capacity": null, "name": "Kids & Company", "amenity": "kindergarten", "isced_level": null}},{"type": "Feature", "geometry": {"type":"Point","coordinates":[-75.685261,45.2816857]}, "properties": {"osm_id": 5976297890, "osm_type": "nodes", "capacity": null, "name": "Canyon Walk Child Care Centre", "amenity": "kindergarten", "isced_level": null}},{"type": "Feature", "geometry": {"type":"Point","coordinates":[-75.8398488,45.3958396]}, "properties": {"osm_id": 6515380267, "osm_type": "nodes", "capacity": null, "name": "École Montessori de l'Outaouais", "amenity": "kindergarten", "isced_level": null}},{"type": "Feature", "geometry": {"type":"Point","coordinates":[-75.9365794,45.3484433]}, "properties": {"osm_id": 6307525368, "osm_type": "nodes", "capacity": null, "name": "Centre préscolaire et parascolaire L Étoile filante de Kanata nord", "amenity": "kindergarten", "isced_level": null}},{"type": "Feature", "geometry": {"type":"Point","coordinates":[-75.77229,45.349307]}, "properties": {"osm_id": 6307525219, "osm_type": "nodes", "capacity": null, "name": "Bishop Hamilton Montessori School", "amenity": "kindergarten", "isced_level": null}},{"type": "Feature", "geometry": {"type":"Polygon","coordinates":[[[-75.484701,45.492174],[-75.484493,45.491951],[-75.484369,45.492008],[-75.484468,45.492114],[-75.484455,45.492119],[-75.484502,45.492169],[-75.484514,45.492163],[-75.484578,45.492231],[-75.484701,45.492174]]]}, "properties": {"osm_id": 471107638, "osm_type": "ways_poly", "capacity": null, "name": "The Little School", "amenity": "kindergarten", "isced_level": null}},{"type": "Feature", "geometry": {"type":"Polygon","coordinates":[[[-75.4879785,45.4959277],[-75.4878652,45.4957083],[-75.4877391,45.4952965],[-75.4865753,45.4935708],[-75.4844563,45.4945635],[-75.4850704,45.4952138],[-75.4854727,45.4950483],[-75.4856336,45.4950859],[-75.4862773,45.4948114],[-75.4864436,45.4948265],[-75.4872161,45.4955297],[-75.4868352,45.4957553],[-75.4870151,45.4961504],[-75.4879785,45.4959277]]]}, "properties": {"osm_id": 395652647, "osm_type": "ways_poly", "capacity": null, "name": "La Cité - Campus Alphonse-Desjardins", "amenity": "college", "isced_level": "4;5"}},{"type": "Feature", "geometry": {"type":"Polygon","coordinates":[[[-76.2396187,44.9883577],[-76.2379987,44.9869008],[-76.2362069,44.9878835],[-76.2379182,44.9893821],[-76.2396187,44.9883577]]]}, "properties": {"osm_id": 261583448, "osm_type": "ways_poly", "capacity": null, "name": "Drummond Central School", "amenity": "school", "isced_level": "1"}},{"type": "Feature", "geometry": {"type":"Polygon","coordinates":[[[-75.502231,45.4673358],[-75.5020486,45.4672621],[-75.5020076,45.4672397],[-75.5018852,45.46715],[-75.5004294,45.4666635],[-75.5000199,45.4672292],[-75.4998581,45.467468],[-75.500488,45.468593],[-75.501367,45.4683494],[-75.5018605,45.4682133],[-75.5018488,45.4681904],[-75.5018316,45.4680273],[-75.5018555,45.4678573],[-75.501886,45.4677523],[-75.5019335,45.4676492],[-75.5019746,45.4675742],[-75.5020457,45.4674829],[-75.5021207,45.4674123],[-75.502231,45.4673358]]]}, "properties": {"osm_id": 307397305, "osm_type": "ways_poly", "capacity": null, "name": "Our Lady Of Wisdom School", "amenity": "school", "isced_level": "1"}},{"type": "Feature", "geometry": {"type":"Polygon","coordinates":[[[-75.6314508,45.4828382],[-75.6313076,45.4815869],[-75.6299719,45.4816415],[-75.6301184,45.4828857],[-75.6314508,45.4828382]]]},